[{"city": "Albertville", "state": "AL", "fips": "01095", "name": "Albertville Middle School", "zip": "35950", "lat": 34.260194, "country": "Marshall County", "lon": -86.206174, "addr": "600 E Alabama Ave"}, {"city": "Albertville", "state": "AL", "fips": "01095", "name": "Albertville High School", "zip": "35950", "lat": 34.262226, "country": "Marshall County", "lon": -86.204884, "addr": "402 E McCord Ave"}, {"city": "Albertville", "state": "AL", "fips": "01095", "name": "Evans Elementary School", "zip": "35950", "lat": 34.273318, "country": "Marshall County", "lon": -86.220144, "addr": "901 W McKinney Ave"}, {"city": "Albertville", "state": "AL", "fips": "01095", "name": "Albertville Elementary School", "zip": "35950", "lat": 34.2527, "country": "Marshall County", "lon": -86.221806, "addr": "145 West End Drive"}, {"city": "Albertville", "state": "AL", "fips": "01095", "name": "Big Spring Lake Kindergarten School", "zip": "35951", "lat": 34.289849, "country": "Marshall County", "lon": -86.193289, "addr": "257 Country Club Rd"}, {"city": "Albertville", "state": "AL", "fips": "01095", "name": "Albertville Primary School", "zip": "35950", "lat": 34.253277, "country": "Marshall County", "lon": -86.22177, "addr": "1100 Horton Rd"}, {"city": "Grant", "state": "AL", "fips": "01095", "name": "Kate Duncan Smith DAR Middle", "zip": "35747", "lat": 34.533721, "country": "Marshall County", "lon": -86.254088, "addr": "6077 Main St"}, {"city": "Albertville", "state": "AL", "fips": "01095", "name": "Asbury High School", "zip": "35951", "lat": 34.362549, "country": "Marshall County", "lon": -86.142019, "addr": "1990 Asbury Rd"}, {"city": "Guntersville", "state": "AL", "fips": "01095", "name": "Claysville School", "zip": "35976", "lat": 34.406886, "country": "Marshall County", "lon": -86.270361, "addr": "140 Claysville School Rd"}, {"city": "Douglas", "state": "AL", "fips": "01095", "name": "Douglas Elementary School", "zip": "35964", "lat": 34.176234, "country": "Marshall County", "lon": -86.321259, "addr": "Highway 75"}, {"city": "Douglas", "state": "AL", "fips": "01095", "name": "Douglas High School", "zip": "35964", "lat": 34.176236, "country": "Marshall County", "lon": -86.321321, "addr": "225 Eagle Drive"}, {"city": "Arab", "state": "AL", "fips": "01095", "name": "Brindlee Mountain Elementary School", "zip": "35016", "lat": 34.344516, "country": "Marshall County", "lon": -86.442078, "addr": "2233 Shoal Creek Rd"}, {"city": "Grant", "state": "AL", "fips": "01095", "name": "Kate D Smith DAR High School", "zip": "35747", "lat": 34.534341, "country": "Marshall County", "lon": -86.254087, "addr": "6077 Main St"}, {"city": "Union Grove", "state": "AL", "fips": "01095", "name": "Brindlee Mountain Primary School", "zip": "35175", "lat": 34.399966, "country": "Marshall County", "lon": -86.446812, "addr": "3685 Union Grove Rd"}, {"city": "Guntersville", "state": "AL", "fips": "01095", "name": "Marshall Alternative School", "zip": "35976", "lat": 34.305448, "country": "Marshall County", "lon": -86.285854, "addr": "140 Claysville School Rd"}, {"city": "Guntersville", "state": "AL", "fips": "01095", "name": "Marshall Technical School", "zip": "35976", "lat": 34.305448, "country": "Marshall County", "lon": -86.285854, "addr": "12312 US Highway 431 S"}, {"city": "Douglas", "state": "AL", "fips": "01095", "name": "Robert D Sloman Primary", "zip": "35964", "lat": 34.176774, "country": "Marshall County", "lon": -86.322507, "addr": "200 Bethlehem Rd"}, {"city": "Guntersville", "state": "AL", "fips": "01095", "name": "Brindlee Mountain High School", "zip": "35976", "lat": 34.3764, "country": "Marshall County", "lon": -86.421876, "addr": "994 Scant City Road"}, {"city": "Grant", "state": "AL", "fips": "01095", "name": "Kate D Smith DAR Elementary School", "zip": "35747", "lat": 34.534339, "country": "Marshall County", "lon": -86.254152, "addr": "6077 Main St"}, {"city": "Douglas", "state": "AL", "fips": "01095", "name": "Douglas Middle School", "zip": "35964", "lat": 34.177536, "country": "Marshall County", "lon": -86.320895, "addr": "Highway 75"}, {"city": "Albertville", "state": "AL", "fips": "01095", "name": "Asbury Elementary School", "zip": "35951", "lat": 34.362734, "country": "Marshall County", "lon": -86.141422, "addr": "1966 Asbury Road"}, {"city": "Hoover", "state": "AL", "fips": "01073", "name": "Trace Crossings Elementary School", "zip": "35244", "lat": 33.340886, "country": "Jefferson County", "lon": -86.844733, "addr": "5454 Learning Lane"}, {"city": "Hoover", "state": "AL", "fips": "01117", "name": "Greystone Elementary School", "zip": "35242", "lat": 33.413047, "country": "Shelby County", "lon": -86.658547, "addr": "300 Village Street"}, {"city": "Hoover", "state": "AL", "fips": "01073", "name": "Hoover High School", "zip": "35244", "lat": 33.34437, "country": "Jefferson County", "lon": -86.837683, "addr": "1000 Buccaneer Drive"}, {"city": "Hoover", "state": "AL", "fips": "01117", "name": "Berry Middle School", "zip": "35242", "lat": 33.395648, "country": "Shelby County", "lon": -86.73218, "addr": "4500 Jaguar Dr"}, {"city": "Hoover", "state": "AL", "fips": "01073", "name": "South Shades Crest Elementary School", "zip": "35244", "lat": 33.337527, "country": "Jefferson County", "lon": -86.87839, "addr": "3770 South Shades Crest Rd"}, {"city": "Hoover", "state": "AL", "fips": "01117", "name": "Robert F Bumpus Middle School", "zip": "35244", "lat": 33.330923, "country": "Shelby County", "lon": -86.854796, "addr": "6055 Flemming Parkway"}, {"city": "Hoover", "state": "AL", "fips": "01117", "name": "Spain Park High School", "zip": "35242", "lat": 33.39271, "country": "Shelby County", "lon": -86.728785, "addr": "4700 Jaguar Drive"}, {"city": "Hoover", "state": "AL", "fips": "01073", "name": "Deer Valley Elementary School", "zip": "35226", "lat": 33.363896, "country": "Jefferson County", "lon": -86.867364, "addr": "4990 Ross Bridge Parkway"}, {"city": "Hoover", "state": "AL", "fips": "01073", "name": "Bluff Park Elementary School", "zip": "35226", "lat": 33.409579, "country": "Jefferson County", "lon": -86.853755, "addr": "569 Park Avenue"}, {"city": "Hoover", "state": "AL", "fips": "01073", "name": "Green Valley Elementary School", "zip": "35226", "lat": 33.395712, "country": "Jefferson County", "lon": -86.808822, "addr": "3200 Old Columbiana Rd"}, {"city": "Hoover", "state": "AL", "fips": "01073", "name": "Gwin Elementary School", "zip": "35226", "lat": 33.388151, "country": "Jefferson County", "lon": -86.831233, "addr": "1580 Patton Chapel Road"}, {"city": "Hoover", "state": "AL", "fips": "01073", "name": "Ira F Simmons Middle School", "zip": "35226", "lat": 33.387895, "country": "Jefferson County", "lon": -86.833672, "addr": "1575 Patton Chapel Road"}, {"city": "Hoover", "state": "AL", "fips": "01073", "name": "Rocky Ridge Elementary School", "zip": "35243", "lat": 33.409144, "country": "Jefferson County", "lon": -86.766806, "addr": "2876 Old Rocky Ridge Rd"}, {"city": "Hoover", "state": "AL", "fips": "01073", "name": "Shades Mountain Elementary School", "zip": "35226", "lat": 33.426801, "country": "Jefferson County", "lon": -86.824411, "addr": "2250 Sumpter St"}, {"city": "Hoover", "state": "AL", "fips": "01117", "name": "Riverchase Elementary School", "zip": "35244", "lat": 33.359591, "country": "Shelby County", "lon": -86.812865, "addr": "1950 Old Montgomery Highway"}, {"city": "Hoover", "state": "AL", "fips": "01073", "name": "Brocks Gap Intermediate School", "zip": "35244", "lat": 33.344122, "country": "Jefferson County", "lon": -86.88919, "addr": "1730 Lake Cyrus Club Drive"}, {"city": "Hoover", "state": "AL", "fips": "01073", "name": "Crossroads School", "zip": "35244", "lat": 33.337604, "country": "Jefferson County", "lon": -86.840932, "addr": "1085 Buccaneer Drive"}, {"city": "Madison", "state": "AL", "fips": "01089", "name": "Horizon Elementary School", "zip": "35758", "lat": 34.705817, "country": "Madison County", "lon": -86.713709, "addr": "7855 Old Madison Pike"}, {"city": "Madison", "state": "AL", "fips": "01089", "name": "Discovery Middle School", "zip": "35758", "lat": 34.740814, "country": "Madison County", "lon": -86.742697, "addr": "1304 Hughes Rd"}, {"city": "Madison", "state": "AL", "fips": "01089", "name": "Bob Jones High School", "zip": "35758", "lat": 34.719158, "country": "Madison County", "lon": -86.742545, "addr": "650 Hughes Rd"}, {"city": "Madison", "state": "AL", "fips": "01089", "name": "Madison Elementary School", "zip": "35758", "lat": 34.697454, "country": "Madison County", "lon": -86.750464, "addr": "17 College St"}, {"city": "Madison", "state": "AL", "fips": "01089", "name": "West Madison Elementary School", "zip": "35758", "lat": 34.721194, "country": "Madison County", "lon": -86.751155, "addr": "4976 Wall Triana Hwy"}, {"city": "Madison", "state": "AL", "fips": "01089", "name": "Heritage Elementary School", "zip": "35758", "lat": 34.721075, "country": "Madison County", "lon": -86.783233, "addr": "11775 County Line Rd"}, {"city": "Madison", "state": "AL", "fips": "01089", "name": "Rainbow Elementary School", "zip": "35758", "lat": 34.751223, "country": "Madison County", "lon": -86.733057, "addr": "50 Nance Rd"}, {"city": "Madison", "state": "AL", "fips": "01089", "name": "Liberty Middle School", "zip": "35758", "lat": 34.73367, "country": "Madison County", "lon": -86.779197, "addr": "281 Dock Murphy Dr"}, {"city": "Madison", "state": "AL", "fips": "01089", "name": "Columbia Elementary School", "zip": "35758", "lat": 34.734315, "country": "Madison County", "lon": -86.766046, "addr": "667 Balch Road"}, {"city": "Madison", "state": "AL", "fips": "01089", "name": "Mill Creek Elementary School", "zip": "35758", "lat": 34.701186, "country": "Madison County", "lon": -86.772013, "addr": "847 Mill Road"}, {"city": "Madison", "state": "AL", "fips": "01083", "name": "James Clemens High School", "zip": "35756", "lat": 34.705886, "country": "Limestone County", "lon": -86.791802, "addr": "11306 County Line Road"}, {"city": "Talladega", "state": "AL", "fips": "01121", "name": "Alabama School For Deaf", "zip": "35160", "lat": 33.43196, "country": "Talladega County", "lon": -86.098534, "addr": "205 E South Street"}, {"city": "Talladega", "state": "AL", "fips": "01121", "name": "Alabama School For Blind", "zip": "35160", "lat": 33.433574, "country": "Talladega County", "lon": -86.089689, "addr": "705 E South Street"}, {"city": "Talladega", "state": "AL", "fips": "01121", "name": "Helen Keller School", "zip": "35161", "lat": 33.427279, "country": "Talladega County", "lon": -86.117477, "addr": "1221 Cochran Ave"}, {"city": "Talladega", "state": "AL", "fips": "01121", "name": "E H Gentry Technical Facility", "zip": "35160", "lat": 33.42544, "country": "Talladega County", "lon": -86.117706, "addr": "1105 Fort Lashley"}, {"city": "Huntsville", "state": "AL", "fips": "01089", "name": "Child Count Only", "zip": "35801", "lat": 34.722432, "country": "Madison County", "lon": -86.590455, "addr": "1001 Monroe St"}, {"city": "Leeds", "state": "AL", "fips": "01073", "name": "Leeds Elementary School", "zip": "35094", "lat": 33.545156, "country": "Jefferson County", "lon": -86.548094, "addr": "950 Ashville Road"}, {"city": "Leeds", "state": "AL", "fips": "01073", "name": "Leeds Middle School", "zip": "35094", "lat": 33.54936, "country": "Jefferson County", "lon": -86.536894, "addr": "1771 Whitmire Street"}, {"city": "Leeds", "state": "AL", "fips": "01073", "name": "Leeds High School", "zip": "35094", "lat": 33.547574, "country": "Jefferson County", "lon": -86.574182, "addr": "1500 Greenwave Drive"}, {"city": "Leeds", "state": "AL", "fips": "01073", "name": "Leeds Primary School", "zip": "35094", "lat": 33.54287, "country": "Jefferson County", "lon": -86.564311, "addr": "991 Park Drive"}, {"city": "Boaz", "state": "AL", "fips": "01095", "name": "Boaz Middle School", "zip": "35957", "lat": 34.212226, "country": "Marshall County", "lon": -86.157934, "addr": "140 Newt Parker Dr"}, {"city": "Boaz", "state": "AL", "fips": "01095", "name": "Boaz High School", "zip": "35957", "lat": 34.211786, "country": "Marshall County", "lon": -86.163919, "addr": "907 Brown St"}, {"city": "Boaz", "state": "AL", "fips": "01095", "name": "Corley Elementary School", "zip": "35957", "lat": 34.204839, "country": "Marshall County", "lon": -86.175473, "addr": "505 Mount Vernon Rd"}, {"city": "Boaz", "state": "AL", "fips": "01095", "name": "Boaz Intermediate School", "zip": "35957", "lat": 34.213525, "country": "Marshall County", "lon": -86.161345, "addr": "11 Newt Parker Drive"}, {"city": "Boaz", "state": "AL", "fips": "01095", "name": "Boaz Elementary School", "zip": "35957", "lat": 34.20647, "country": "Marshall County", "lon": -86.178087, "addr": "362 Collier St"}, {"city": "Trussville", "state": "AL", "fips": "01073", "name": "HewittTrussville Middle School", "zip": "35173", "lat": 33.655829, "country": "Jefferson County", "lon": -86.593651, "addr": "5275 Trussville Clay Road"}, {"city": "Trussville", "state": "AL", "fips": "01073", "name": "Paine Elementary School", "zip": "35173", "lat": 33.649323, "country": "Jefferson County", "lon": -86.567607, "addr": "7600 Gadsden Highway"}, {"city": "Trussville", "state": "AL", "fips": "01073", "name": "HewittTrussville High School", "zip": "35173", "lat": 33.665684, "country": "Jefferson County", "lon": -86.590765, "addr": "6450 Husky Parkway"}, {"city": "Trussville", "state": "AL", "fips": "01073", "name": "Magnolia Elementary School", "zip": "35173", "lat": 33.599544, "country": "Jefferson County", "lon": -86.623626, "addr": "5400 Hidden Way Lane"}, {"city": "Trussville", "state": "AL", "fips": "01073", "name": "Cahaba Elementary School", "zip": "35173", "lat": 33.629258, "country": "Jefferson County", "lon": -86.603955, "addr": "301 Parkway Drive"}, {"city": "Minter", "state": "AL", "fips": "01047", "name": "SafetyNet Academy Minter", "zip": "36761", "lat": 32.11162, "country": "Dallas County", "lon": -87.077608, "addr": "80 Mel Bailey Drive"}, {"city": "Montgomery", "state": "AL", "fips": "01101", "name": "Mac Sim Butler Montgomery County Detention Facility", "zip": "36104", "lat": 32.374794, "country": "Montgomery County", "lon": -86.304436, "addr": "225 S McDonough St"}, {"city": "Montgomery", "state": "AL", "fips": "01101", "name": "Safety Net Academy Montgomery", "zip": "36117", "lat": 32.361496, "country": "Montgomery County", "lon": -86.201852, "addr": "5906 Carmichael Place"}, {"city": "Montgomery", "state": "AL", "fips": "01101", "name": "Safety Net Academy Montgomery", "zip": "36117", "lat": 32.361496, "country": "Montgomery County", "lon": -86.201852, "addr": "5906 Carmichael Place"}, {"city": "Selma", "state": "AL", "fips": "01047", "name": "Perry Varner Educational and Treatment Facility", "zip": "36703", "lat": 32.442925, "country": "Dallas County", "lon": -86.944188, "addr": "1002 Selfield Rd"}, {"city": "Decatur", "state": "AL", "fips": "01103", "name": "Morgan County System of Services Inc", "zip": "35602", "lat": 34.619189, "country": "Morgan County", "lon": -87.038078, "addr": "2531 Alabama Hwy 20 West"}, {"city": "Birmingham", "state": "AL", "fips": "01073", "name": "DMH Adolescent Education Program UAB", "zip": "35294", "lat": 33.504855, "country": "Jefferson County", "lon": -86.803891, "addr": "CPM C433 1717 6th Avenue South"}, {"city": "Birmingham", "state": "AL", "fips": "01073", "name": "United Ability", "zip": "35211", "lat": 33.432125, "country": "Jefferson County", "lon": -86.873858, "addr": "120 Oslo Circle"}, {"city": "Green Pond", "state": "AL", "fips": "01007", "name": "The Boyd School", "zip": "35074", "lat": 33.22599, "country": "Bibb County", "lon": -87.122217, "addr": "20856 Eastern Valley Rd"}, {"city": "Tuscaloosa", "state": "AL", "fips": "01125", "name": "BrewerPorch Childrens Center", "zip": "35404", "lat": 33.187754, "country": "Tuscaloosa County", "lon": -87.481937, "addr": "2501 Woodland Rd"}, {"city": "Courtland", "state": "AL", "fips": "01079", "name": "Sequel TSI Courtland LLC", "zip": "35618", "lat": 34.670787, "country": "Lawrence County", "lon": -87.312122, "addr": "349 Madison Street"}, {"city": "Madison", "state": "AL", "fips": "01089", "name": "Sequel TSI Madison LLC", "zip": "35758", "lat": 34.723283, "country": "Madison County", "lon": -86.777872, "addr": "1329 Browns Ferry Road"}, {"city": "Owens Cross Roads", "state": "AL", "fips": "01089", "name": "Sequel TSI New Beginnings LLC", "zip": "35763", "lat": 34.579414, "country": "Madison County", "lon": -86.440997, "addr": "318 Hamer Rd"}, {"city": "Tuskegee", "state": "AL", "fips": "01087", "name": "Sequel TSI Tuskegee LLC", "zip": "36083", "lat": 32.374834, "country": "Macon County", "lon": -85.661814, "addr": "4280 U S Highway 29 South"}, {"city": "Woodstock", "state": "AL", "fips": "01007", "name": "TriWil Inc", "zip": "35188", "lat": 33.163401, "country": "Bibb County", "lon": -87.187669, "addr": "65 Enterprise Loop"}, {"city": "Alexander City", "state": "AL", "fips": "01123", "name": "Alexander City Middle School", "zip": "35010", "lat": 32.945075, "country": "Tallapoosa County", "lon": -85.948794, "addr": "359 State St"}, {"city": "Alexander City", "state": "AL", "fips": "01123", "name": "Benjamin Russell High School", "zip": "35010", "lat": 32.937748, "country": "Tallapoosa County", "lon": -85.950767, "addr": "225 Heard Blvd"}, {"city": "Alexander City", "state": "AL", "fips": "01123", "name": "Jim Pearson Elementary School", "zip": "35010", "lat": 32.931162, "country": "Tallapoosa County", "lon": -85.930694, "addr": "1240 Scott Rd"}, {"city": "Alexander City", "state": "AL", "fips": "01123", "name": "Nathaniel H Stephens Elementary School", "zip": "35010", "lat": 32.955521, "country": "Tallapoosa County", "lon": -85.949032, "addr": "851 Laurel St"}, {"city": "Alexander City", "state": "AL", "fips": "01123", "name": "William L Radney Elementary School", "zip": "35010", "lat": 32.929457, "country": "Tallapoosa County", "lon": -85.972619, "addr": "140 Allison Drive"}, {"city": "Birmingham", "state": "AL", "fips": "01073", "name": "Glenwood Inc", "zip": "35242", "lat": 33.48039, "country": "Jefferson County", "lon": -86.665128, "addr": "150 Glenwood Lane"}, {"city": "Birmingham", "state": "AL", "fips": "01073", "name": "Daniel House", "zip": "35242", "lat": 33.48039, "country": "Jefferson County", "lon": -86.665128, "addr": "150 Glenwood Lane"}, {"city": "Birmingham", "state": "AL", "fips": "01073", "name": "Glenwood Wilderness", "zip": "35242", "lat": 33.48039, "country": "Jefferson County", "lon": -86.665128, "addr": "150 Glenwood Lane"}, {"city": "Eight Mile", "state": "AL", "fips": "01097", "name": "Learning Tree Inc Semmes", "zip": "36575", "lat": 30.794646, "country": "Mobile County", "lon": -88.229311, "addr": "4979 Lott Rd"}, {"city": "Peidmont", "state": "AL", "fips": "01015", "name": "Learning Tree Inc Webb", "zip": "36272", "lat": 33.921026, "country": "Calhoun County", "lon": -85.725683, "addr": "6344 Roy Webb Rd"}, {"city": "Tallassee", "state": "AL", "fips": "01051", "name": "Learning Tree Inc Tallassee", "zip": "36078", "lat": 32.534892, "country": "Elmore County", "lon": -85.894875, "addr": "100 S Dubois St"}, {"city": "Auburn", "state": "AL", "fips": "01081", "name": "Spec Ed Private Services Child Count Only", "zip": "36830", "lat": 32.613378, "country": "Lee County", "lon": -85.47482, "addr": "421 Opelika Rd"}, {"city": "Opelika", "state": "AL", "fips": "01081", "name": "Lee Co Youth Detention Ctr", "zip": "36801", "lat": 32.642141, "country": "Lee County", "lon": -85.428184, "addr": "1109 Spring Drive"}, {"city": "Mobile", "state": "AL", "fips": "01097", "name": "BayPointe ResidentialAltaPointe Health Systems", "zip": "36693", "lat": 30.624823, "country": "Mobile County", "lon": -88.177804, "addr": "5800 Southland Dr"}, {"city": "New Brockton", "state": "AL", "fips": "01031", "name": "Pathway Inc", "zip": "36351", "lat": 31.42272, "country": "Coffee County", "lon": -85.90201, "addr": "109 Private Rd 1202"}, {"city": "Atmore", "state": "AL", "fips": "01003", "name": "Pathway at Baldwin", "zip": "36502", "lat": 31.07607, "country": "Baldwin County", "lon": -87.617528, "addr": "23750 Ewing Farm Rd"}, {"city": "Talladega", "state": "AL", "fips": "01121", "name": "Presbyterian Home for Children", "zip": "35160", "lat": 33.4327, "country": "Talladega County", "lon": -86.086728, "addr": "905 Ashland Hwy"}, {"city": "Montgomery", "state": "AL", "fips": "01101", "name": "Brantwood Childrens Home", "zip": "36107", "lat": 32.38493, "country": "Montgomery County", "lon": -86.290431, "addr": "1309 Upper Wetumpka Rd"}, {"city": "Alabaster", "state": "AL", "fips": "01117", "name": "Developing Alabama Youth Prog", "zip": "35007", "lat": 33.232463, "country": "Shelby County", "lon": -86.825044, "addr": "632 11th Ave SW"}, {"city": "Dothan", "state": "AL", "fips": "01069", "name": "Laurel Oaks Behavioral Health Center", "zip": "36301", "lat": 31.203802, "country": "Houston County", "lon": -85.384637, "addr": "700 E Cottonwood Rd"}, {"city": "Gadsden", "state": "AL", "fips": "01055", "name": "Southeastern Psychiaric Management Inc", "zip": "35904", "lat": 34.072451, "country": "Etowah County", "lon": -86.019739, "addr": "3001 Scenic Hwy"}, {"city": "Birmingham", "state": "AL", "fips": "01073", "name": "The Rushton SchoolGateway Center", "zip": "35212", "lat": 33.545872, "country": "Jefferson County", "lon": -86.758081, "addr": "5201 Airport Highway"}, {"city": "Andalusia", "state": "AL", "fips": "01039", "name": "Andalusia High School", "zip": "36420", "lat": 31.315366, "country": "Covington County", "lon": -86.470843, "addr": "701 Third St"}, {"city": "Andalusia", "state": "AL", "fips": "01039", "name": "Andalusia Junior High", "zip": "36420", "lat": 31.314977, "country": "Covington County", "lon": -86.470935, "addr": "408 4th Avenue"}, {"city": "Andalusia", "state": "AL", "fips": "01039", "name": "Andalusia Elementary School", "zip": "36420", "lat": 31.284565, "country": "Covington County", "lon": -86.502504, "addr": "1501 West Bypass"}, {"city": "Anniston", "state": "AL", "fips": "01015", "name": "Anniston High School", "zip": "36207", "lat": 33.661225, "country": "Calhoun County", "lon": -85.819992, "addr": "1301 Woodstock Ave"}, {"city": "Anniston", "state": "AL", "fips": "01015", "name": "Golden Springs Elementary School", "zip": "36207", "lat": 33.632131, "country": "Calhoun County", "lon": -85.775823, "addr": "100 Feary Dr"}, {"city": "Anniston", "state": "AL", "fips": "01015", "name": "Randolph Park Elementary School", "zip": "36201", "lat": 33.665644, "country": "Calhoun County", "lon": -85.859083, "addr": "2200 W 17th St"}, {"city": "Anniston", "state": "AL", "fips": "01015", "name": "Tenth Street Elementary School", "zip": "36207", "lat": 33.65806, "country": "Calhoun County", "lon": -85.808646, "addr": "1525 E 10th St"}, {"city": "Anniston", "state": "AL", "fips": "01015", "name": "Anniston City Boot Camp School", "zip": "36206", "lat": 33.708181, "country": "Calhoun County", "lon": -85.822842, "addr": "4804 McClellan Blvd"}, {"city": "Anniston", "state": "AL", "fips": "01015", "name": "Anniston Middle School", "zip": "36206", "lat": 33.708181, "country": "Calhoun County", "lon": -85.822842, "addr": "4800 McClellan Blvd"}, {"city": "Anniston", "state": "AL", "fips": "01015", "name": "Cobb PreK Academy", "zip": "36201", "lat": 33.661713, "country": "Calhoun County", "lon": -85.841746, "addr": "1325 Cobb Ave"}, {"city": "Arab", "state": "AL", "fips": "01095", "name": "Arab Elementary School", "zip": "35016", "lat": 34.329288, "country": "Marshall County", "lon": -86.494268, "addr": "241 8th Ave NE"}, {"city": "Arab", "state": "AL", "fips": "01095", "name": "Arab Primary School", "zip": "35016", "lat": 34.33491, "country": "Marshall County", "lon": -86.496624, "addr": "121 Mimosa St NE"}, {"city": "Arab", "state": "AL", "fips": "01095", "name": "Arab Junior High School", "zip": "35016", "lat": 34.312381, "country": "Marshall County", "lon": -86.510509, "addr": "911 Old Cullman Rd"}, {"city": "Arab", "state": "AL", "fips": "01095", "name": "Arab High School", "zip": "35016", "lat": 34.329247, "country": "Marshall County", "lon": -86.48857, "addr": "511 Arabian Dr NE"}, {"city": "Athens", "state": "AL", "fips": "01083", "name": "Athens Intermediate School", "zip": "35611", "lat": 34.793435, "country": "Limestone County", "lon": -86.996665, "addr": "1916 Us Hwy 72 W"}, {"city": "Athens", "state": "AL", "fips": "01083", "name": "Athens Elementary School", "zip": "35611", "lat": 34.808687, "country": "Limestone County", "lon": -86.973266, "addr": "515 N Madison St"}, {"city": "Athens", "state": "AL", "fips": "01083", "name": "Athens High School", "zip": "35611", "lat": 34.812319, "country": "Limestone County", "lon": -86.949293, "addr": "655 Hwy 31 North"}, {"city": "Athens", "state": "AL", "fips": "01083", "name": "Athens Middle School", "zip": "35611", "lat": 34.803346, "country": "Limestone County", "lon": -86.949838, "addr": "100 Hwy 31 North"}, {"city": "Athens", "state": "AL", "fips": "01083", "name": "James L Cowart Elementary School", "zip": "35611", "lat": 34.804348, "country": "Limestone County", "lon": -86.993432, "addr": "1701 W Hobbs St"}, {"city": "Athens", "state": "AL", "fips": "01083", "name": "Julian Newman Elementary School", "zip": "35611", "lat": 34.799304, "country": "Limestone County", "lon": -86.96261, "addr": "517 Julian Newman Dr"}, {"city": "Athens", "state": "AL", "fips": "01083", "name": "Brookhill Elementary School", "zip": "35611", "lat": 34.781914, "country": "Limestone County", "lon": -86.9629, "addr": "320 Brookhill Dr"}, {"city": "Athens", "state": "AL", "fips": "01083", "name": "Athens Renaissance School", "zip": "35611", "lat": 34.800179, "country": "Limestone County", "lon": -86.964919, "addr": "405 South Street East"}, {"city": "Athens", "state": "AL", "fips": "01083", "name": "Alabama Renaissance School", "zip": "35611", "lat": 34.801085, "country": "Limestone County", "lon": -86.971889, "addr": "201 West Green Street Suite B1"}, {"city": "Mobile", "state": "AL", "fips": "01097", "name": "POINTE Academy LLC", "zip": "36617", "lat": 30.704663, "country": "Mobile County", "lon": -88.082939, "addr": "461 Donald Street"}, {"city": "Childersburg", "state": "AL", "fips": "01121", "name": "Childersburg Boot Camp", "zip": "35044", "lat": 33.364683, "country": "Talladega County", "lon": -86.332274, "addr": "926 Selma Highway"}, {"city": "Elmore", "state": "AL", "fips": "01051", "name": "Draper Correctional Facility", "zip": "36025", "lat": 32.577049, "country": "Elmore County", "lon": -86.337457, "addr": "2828 Al Highway 143"}, {"city": "Wetumpka", "state": "AL", "fips": "01051", "name": "Tutwiler Prison", "zip": "36092", "lat": 32.564214, "country": "Elmore County", "lon": -86.193789, "addr": "8966 US Highway 231"}, {"city": "Bessemer", "state": "AL", "fips": "01073", "name": "W E Donaldson", "zip": "35023", "lat": 33.51396, "country": "Jefferson County", "lon": -87.184745, "addr": "100 Warrior Ln"}, {"city": "Deatsville", "state": "AL", "fips": "01051", "name": "JF Ingram State Technical College Special Services", "zip": "36022", "lat": 32.582667, "country": "Elmore County", "lon": -86.391816, "addr": "5375 Ingram Rd"}, {"city": "Montgomery", "state": "AL", "fips": "01101", "name": "Kilby Correctional Facility", "zip": "36117", "lat": 32.387976, "country": "Montgomery County", "lon": -86.101496, "addr": "12201 Edna Brake Lucas Dr"}, {"city": "Elmore", "state": "AL", "fips": "01051", "name": "Staton Correctional Facility", "zip": "36025", "lat": 32.577164, "country": "Elmore County", "lon": -86.333054, "addr": "2690 Marion Spillway Road"}, {"city": "Deatsville", "state": "AL", "fips": "01051", "name": "Frank Lee Youth Center", "zip": "36022", "lat": 32.581384, "country": "Elmore County", "lon": -86.391869, "addr": "5305 Ingram Rd"}, {"city": "Birmingham", "state": "AL", "fips": "01073", "name": "Higdon Hill School", "zip": "35212", "lat": 33.548911, "country": "Jefferson County", "lon": -86.730571, "addr": "6869 5th Ave S"}, {"city": "Birmingham", "state": "AL", "fips": "01073", "name": "Higdon Hill School", "zip": "35212", "lat": 33.548911, "country": "Jefferson County", "lon": -86.730571, "addr": "6869 5th Ave S"}, {"city": "Mobile", "state": "AL", "fips": "01097", "name": "The Bridge Inc Mobile", "zip": "36695", "lat": 30.619211, "country": "Mobile County", "lon": -88.33722, "addr": "3401 Newman Road"}, {"city": "Gadsden", "state": "AL", "fips": "01055", "name": "The Bridge Inc Gadsden", "zip": "35904", "lat": 34.071923, "country": "Etowah County", "lon": -85.979239, "addr": "3232 Lay Springs Road"}, {"city": "Attalla", "state": "AL", "fips": "01055", "name": "Etowah High School", "zip": "35954", "lat": 33.995973, "country": "Etowah County", "lon": -86.110859, "addr": "201 Case Ave"}, {"city": "Attalla", "state": "AL", "fips": "01055", "name": "Etowah Middle School", "zip": "35954", "lat": 33.995704, "country": "Etowah County", "lon": -86.112782, "addr": "316 Jones Street"}, {"city": "Attalla", "state": "AL", "fips": "01055", "name": "Attalla Elementary School", "zip": "35954", "lat": 33.998734, "country": "Etowah County", "lon": -86.126219, "addr": "300 Cullman Avenue"}, {"city": "Flomaton", "state": "AL", "fips": "01053", "name": "Compass School", "zip": "36441", "lat": 31.006675, "country": "Escambia County", "lon": -87.268202, "addr": "21280 Hwy 31"}, {"city": "Birmingham", "state": "AL", "fips": "01073", "name": "Alabama Clinical Schools", "zip": "35210", "lat": 33.58486, "country": "Jefferson County", "lon": -86.646003, "addr": "1221 Alton Dr"}, {"city": "Gadsden", "state": "AL", "fips": "01055", "name": "Excel Institute", "zip": "35901", "lat": 34.011773, "country": "Etowah County", "lon": -86.02093, "addr": "1147 Walnut St"}, {"city": "Saraland", "state": "AL", "fips": "01097", "name": "Saraland Middle SchoolAdams Campus", "zip": "36571", "lat": 30.8313, "country": "Mobile County", "lon": -88.065367, "addr": "401 Baldwin Road"}, {"city": "Saraland", "state": "AL", "fips": "01097", "name": "Saraland Elementary School", "zip": "36571", "lat": 30.810124, "country": "Mobile County", "lon": -88.078798, "addr": "229 McKeough Ave"}, {"city": "Saraland", "state": "AL", "fips": "01097", "name": "Saraland High School", "zip": "36571", "lat": 30.796015, "country": "Mobile County", "lon": -88.100153, "addr": "1115 Industrial Parkway"}, {"city": "Saraland", "state": "AL", "fips": "01097", "name": "Saraland Early Education Center", "zip": "36571", "lat": 30.862646, "country": "Mobile County", "lon": -88.127436, "addr": "4000 Lil Spartan Drive"}, {"city": "Montgomery", "state": "AL", "fips": "01101", "name": "Father Purcell Memorial Exceptional Childrens Center", "zip": "36108", "lat": 32.353, "country": "Montgomery County", "lon": -86.326001, "addr": "1820 Oak St"}, {"city": "Montgomery", "state": "AL", "fips": "01101", "name": "Montgomery Childrens Specialty Center", "zip": "36110", "lat": 32.425143, "country": "Montgomery County", "lon": -86.286837, "addr": "2853 Forbes Dr"}, {"city": "Chickasaw", "state": "AL", "fips": "01097", "name": "Chickasaw City Elementary School", "zip": "36611", "lat": 30.761258, "country": "Mobile County", "lon": -88.082215, "addr": "80 Grant Street"}, {"city": "Chickasaw", "state": "AL", "fips": "01097", "name": "Chickasaw City High School", "zip": "36611", "lat": 30.75687, "country": "Mobile County", "lon": -88.077977, "addr": "50 12th Ave"}, {"city": "Chickasaw", "state": "AL", "fips": "01097", "name": "Chickasaw Middle School", "zip": "36611", "lat": 30.756856, "country": "Mobile County", "lon": -88.078622, "addr": "50 Chieftain Way"}, {"city": "Satsuma", "state": "AL", "fips": "01097", "name": "Satsuma High School", "zip": "36572", "lat": 30.847077, "country": "Mobile County", "lon": -88.056867, "addr": "1 Gator Circle"}, {"city": "Satsuma", "state": "AL", "fips": "01097", "name": "Robert E Lee Elementary", "zip": "36572", "lat": 30.846614, "country": "Mobile County", "lon": -88.067029, "addr": "251 Baker Rd"}, {"city": "Alabaster", "state": "AL", "fips": "01117", "name": "Thompson Intermediate School", "zip": "35007", "lat": 33.224912, "country": "Shelby County", "lon": -86.824098, "addr": "10019 Highway 119"}, {"city": "Alabaster", "state": "AL", "fips": "01117", "name": "Thompson High School", "zip": "35007", "lat": 33.222102, "country": "Shelby County", "lon": -86.845962, "addr": "1921 Warrior Parkway"}, {"city": "Alabaster", "state": "AL", "fips": "01117", "name": "Thompson Middle School", "zip": "35007", "lat": 33.217043, "country": "Shelby County", "lon": -86.838544, "addr": "1509 Kent Dairy Road"}, {"city": "Alabaster", "state": "AL", "fips": "01117", "name": "Meadow View  Elementary School", "zip": "35007", "lat": 33.17642, "country": "Shelby County", "lon": -86.808574, "addr": "2800 Smokey Rd"}, {"city": "Maylene", "state": "AL", "fips": "01117", "name": "Creek View Elementary School", "zip": "35114", "lat": 33.225792, "country": "Shelby County", "lon": -86.864943, "addr": "8568 Highway 17"}, {"city": "Alabaster", "state": "AL", "fips": "01117", "name": "Thompson Sixth Grade Center", "zip": "35007", "lat": 33.226128, "country": "Shelby County", "lon": -86.824103, "addr": "10111 Highway 119"}, {"city": "Tuscaloosa", "state": "AL", "fips": "01125", "name": "Evergreen School", "zip": "35405", "lat": 33.208594, "country": "Tuscaloosa County", "lon": -87.545493, "addr": "The University of Alabama Working on Womanhood Program 6001"}, {"city": "Montgomery", "state": "AL", "fips": "01101", "name": "Montgomery Public Schools MPS Classroom McInnis", "zip": "36116", "lat": 32.289712, "country": "Montgomery County", "lon": -86.261669, "addr": "3500 McInnis Rd"}, {"city": "Mobile", "state": "AL", "fips": "01097", "name": "St Marys Home", "zip": "36618", "lat": 30.721769, "country": "Mobile County", "lon": -88.141573, "addr": "4350 Moffett Road"}, {"city": "Pelham", "state": "AL", "fips": "01117", "name": "Pelham Oaks", "zip": "35124", "lat": 33.309908, "country": "Shelby County", "lon": -86.789469, "addr": "2200 Highway 33"}, {"city": "Pelham", "state": "AL", "fips": "01117", "name": "Pelham Ridge", "zip": "35124", "lat": 33.275334, "country": "Shelby County", "lon": -86.78671, "addr": "251 Applegate Parkway"}, {"city": "Pelham", "state": "AL", "fips": "01117", "name": "Pelham Park Middle School", "zip": "35124", "lat": 33.30662, "country": "Shelby County", "lon": -86.808097, "addr": "2016 Pelham Park Boulevard"}, {"city": "Pelham", "state": "AL", "fips": "01117", "name": "Pelham High School", "zip": "35124", "lat": 33.312895, "country": "Shelby County", "lon": -86.82121, "addr": "2500 Panther Cir"}, {"city": "Pike Road", "state": "AL", "fips": "01101", "name": "Pike Road Elementary School", "zip": "36064", "lat": 32.338392, "country": "Montgomery County", "lon": -86.028178, "addr": "500 Avenue of Learning"}, {"city": "Pike Road", "state": "AL", "fips": "01101", "name": "Pike Road Middle School", "zip": "36064", "lat": 32.285484, "country": "Montgomery County", "lon": -86.103225, "addr": "4710 Pike Road"}, {"city": "Pike Road", "state": "AL", "fips": "01101", "name": "Pike Road High School", "zip": "36064", "lat": 32.355003, "country": "Montgomery County", "lon": -86.102682, "addr": "696 Georgia Washington Rd"}, {"city": "Mobile", "state": "AL", "fips": "01097", "name": "Acceleration Day and Evening Academy", "zip": "36606", "lat": 30.668018, "country": "Mobile County", "lon": -88.11973, "addr": "3100 Cottage Hill Rd"}, {"city": "MONTGOMERY", "state": "AL", "fips": "01101", "name": "Sequel TSI Montgomery LLC", "zip": "36104", "lat": 32.37078, "country": "Montgomery County", "lon": -86.31163, "addr": "135 Mildred St"}, {"city": "Livingston", "state": "AL", "fips": "01119", "name": "University Charter School", "zip": "35470", "lat": 32.586288, "country": "Sumter County", "lon": -88.189067, "addr": "108 School Street"}, {"city": "Opelika", "state": "AL", "fips": "01081", "name": "East Alabama Medical Center", "zip": "35601", "lat": 32.638835, "country": "Lee County", "lon": -85.404667, "addr": "2000 Pepperell Pkwy"}, {"city": "Auburn", "state": "AL", "fips": "01081", "name": "Auburn High School", "zip": "36830", "lat": 32.603878, "country": "Lee County", "lon": -85.446081, "addr": "1701 E Samford Avenue"}, {"city": "Auburn", "state": "AL", "fips": "01081", "name": "Auburn Junior High School", "zip": "36830", "lat": 32.596469, "country": "Lee County", "lon": -85.463119, "addr": "405 S Dean Rd"}, {"city": "Auburn", "state": "AL", "fips": "01081", "name": "Cary Woods Elementary School", "zip": "36830", "lat": 32.620936, "country": "Lee County", "lon": -85.484673, "addr": "715 Sanders St"}, {"city": "Auburn", "state": "AL", "fips": "01081", "name": "Dean Road Elementary School", "zip": "36830", "lat": 32.600491, "country": "Lee County", "lon": -85.464089, "addr": "335 S Dean Rd"}, {"city": "Auburn", "state": "AL", "fips": "01081", "name": "Drake Middle School", "zip": "36832", "lat": 32.618099, "country": "Lee County", "lon": -85.494389, "addr": "655 Spencer Ave"}, {"city": "Auburn", "state": "AL", "fips": "01081", "name": "Wrights Mill Road Elementary School", "zip": "36830", "lat": 32.589963, "country": "Lee County", "lon": -85.472008, "addr": "807 Wrights Mill Rd"}, {"city": "Auburn", "state": "AL", "fips": "01081", "name": "Auburn Early Education Center", "zip": "36830", "lat": 32.585926, "country": "Lee County", "lon": -85.468923, "addr": "721 E University Dr"}, {"city": "Auburn", "state": "AL", "fips": "01081", "name": "Ogletree Elementary School", "zip": "36830", "lat": 32.564003, "country": "Lee County", "lon": -85.456576, "addr": "737 Ogletree Rd"}, {"city": "Auburn", "state": "AL", "fips": "01081", "name": "Margaret Yarbrough Elementary School", "zip": "36830", "lat": 32.640382, "country": "Lee County", "lon": -85.506468, "addr": "1555 N Donahue Dr"}, {"city": "Auburn", "state": "AL", "fips": "01081", "name": "Richland Elementary School", "zip": "36830", "lat": 32.619649, "country": "Lee County", "lon": -85.513374, "addr": "770 S Yarbrough Farms Boulevard"}, {"city": "Auburn", "state": "AL", "fips": "01081", "name": "Pick Elementary School", "zip": "36830", "lat": 32.633511, "country": "Lee County", "lon": -85.47833, "addr": "1320 N College St"}, {"city": "Auburn", "state": "AL", "fips": "01081", "name": "East Samford School", "zip": "36830", "lat": 32.598241, "country": "Lee County", "lon": -85.476613, "addr": "332 E Samford Avenue"}, {"city": "Auburn", "state": "AL", "fips": "01081", "name": "Creekside Elementary School", "zip": "36832", "lat": 32.623183, "country": "Lee County", "lon": -85.517929, "addr": "1800 Richland Road"}, {"city": "Billingsley", "state": "AL", "fips": "01001", "name": "Billingsley High School", "zip": "36006", "lat": 32.663571, "country": "Autauga County", "lon": -86.700747, "addr": "2446 County Road 77"}, {"city": "Deatsville", "state": "AL", "fips": "01001", "name": "Marbury High School", "zip": "36022", "lat": 32.619027, "country": "Autauga County", "lon": -86.481999, "addr": "2360 Highway 31 North"}, {"city": "Prattville", "state": "AL", "fips": "01001", "name": "Prattville Elementary School", "zip": "36067", "lat": 32.454675, "country": "Autauga County", "lon": -86.455471, "addr": "134 Patrick St"}, {"city": "Prattville", "state": "AL", "fips": "01001", "name": "Prattville High School", "zip": "36067", "lat": 32.500533, "country": "Autauga County", "lon": -86.471585, "addr": "1315 Upper Kingston Rd"}, {"city": "Prattville", "state": "AL", "fips": "01001", "name": "Prattville Junior High School", "zip": "36067", "lat": 32.484949, "country": "Autauga County", "lon": -86.470642, "addr": "1089 N Chestnut"}, {"city": "Prattville", "state": "AL", "fips": "01001", "name": "Prattville Intermediate School", "zip": "36067", "lat": 32.454222, "country": "Autauga County", "lon": -86.451616, "addr": "1020 Honeysuckle Dr"}, {"city": "Prattville", "state": "AL", "fips": "01001", "name": "Prattville Primary School", "zip": "36067", "lat": 32.462388, "country": "Autauga County", "lon": -86.46838, "addr": "216 Wetumpka St"}, {"city": "Deatsville", "state": "AL", "fips": "01001", "name": "Pine Level Elementary School", "zip": "36022", "lat": 32.589386, "country": "Autauga County", "lon": -86.463004, "addr": "2040 Highway 31 N"}, {"city": "Prattville", "state": "AL", "fips": "01001", "name": "Daniel Pratt Elementary School", "zip": "36066", "lat": 32.452238, "country": "Autauga County", "lon": -86.42219, "addr": "420 Harvest Loop"}, {"city": "Prattville", "state": "AL", "fips": "01001", "name": "Autauga County Alternative School", "zip": "36067", "lat": 32.455059, "country": "Autauga County", "lon": -86.454282, "addr": "816 Cardinal Ln"}, {"city": "Prattville", "state": "AL", "fips": "01001", "name": "Autauga County Technology Center", "zip": "36067", "lat": 32.500629, "country": "Autauga County", "lon": -86.473537, "addr": "1301 Upper Kingston Rd"}, {"city": "Autaugaville", "state": "AL", "fips": "01001", "name": "Autaugaville School", "zip": "36003", "lat": 32.433931, "country": "Autauga County", "lon": -86.659977, "addr": "2708 Dutch Bend St"}, {"city": "Prattville", "state": "AL", "fips": "01001", "name": "Louise M Smith Development Center", "zip": "36066", "lat": 32.448195, "country": "Autauga County", "lon": -86.421643, "addr": "298 Jay Street"}, {"city": "Prattville", "state": "AL", "fips": "01001", "name": "Prattville Kindergarten School", "zip": "36067", "lat": 32.457364, "country": "Autauga County", "lon": -86.466194, "addr": "338 1st St"}, {"city": "Marbury", "state": "AL", "fips": "01001", "name": "Marbury Middle School", "zip": "36051", "lat": 32.700293, "country": "Autauga County", "lon": -86.474055, "addr": "210 County Road 20 East"}, {"city": "Daphne", "state": "AL", "fips": "01003", "name": "Daphne Middle School", "zip": "36526", "lat": 30.617332, "country": "Baldwin County", "lon": -87.870063, "addr": "One Jody Davis Cir"}, {"city": "Gulf Shores", "state": "AL", "fips": "01003", "name": "Gulf Shores Middle School", "zip": "36542", "lat": 30.269068, "country": "Baldwin County", "lon": -87.678994, "addr": "450 E 15th Ave"}, {"city": "Robertsdale", "state": "AL", "fips": "01003", "name": "Robertsdale High School", "zip": "36567", "lat": 30.540413, "country": "Baldwin County", "lon": -87.706485, "addr": "21630 Highway 59 South"}, {"city": "Daphne", "state": "AL", "fips": "01003", "name": "W J Carroll Intermediate School", "zip": "36526", "lat": 30.591378, "country": "Baldwin County", "lon": -87.902219, "addr": "1000 Main St"}, {"city": "Elberta", "state": "AL", "fips": "01003", "name": "Elberta High School", "zip": "36530", "lat": 30.419807, "country": "Baldwin County", "lon": -87.59976, "addr": "13355main Street"}, {"city": "Robertsdale", "state": "AL", "fips": "01003", "name": "Elsanor School", "zip": "36567", "lat": 30.567272, "country": "Baldwin County", "lon": -87.624328, "addr": "23440 US Highway 90"}, {"city": "Fairhope", "state": "AL", "fips": "01003", "name": "Fairhope Middle School", "zip": "36532", "lat": 30.495443, "country": "Baldwin County", "lon": -87.881755, "addr": "Two Pirate Drive"}, {"city": "Foley", "state": "AL", "fips": "01003", "name": "Foley Middle School", "zip": "36535", "lat": 30.407235, "country": "Baldwin County", "lon": -87.688472, "addr": "200 N Oak St"}, {"city": "Perdido", "state": "AL", "fips": "01003", "name": "Perdido Elementary School", "zip": "36562", "lat": 31.00521, "country": "Baldwin County", "lon": -87.622619, "addr": "23589 County Road 47"}, {"city": "Robertsdale", "state": "AL", "fips": "01003", "name": "Rosinton School", "zip": "36567", "lat": 30.619407, "country": "Baldwin County", "lon": -87.686299, "addr": "19757 County Road 64"}, {"city": "Silverhill", "state": "AL", "fips": "01003", "name": "Silverhill School", "zip": "36576", "lat": 30.543328, "country": "Baldwin County", "lon": -87.753727, "addr": "15800 4th Ave"}, {"city": "Spanish Fort", "state": "AL", "fips": "01003", "name": "Spanish Fort Elementary School", "zip": "36527", "lat": 30.67443, "country": "Baldwin County", "lon": -87.904563, "addr": "30900 State Highway 225"}, {"city": "Stapleton", "state": "AL", "fips": "01003", "name": "Stapleton School", "zip": "36578", "lat": 30.742356, "country": "Baldwin County", "lon": -87.790171, "addr": "35480 Harriot Avestap"}, {"city": "Summerdale", "state": "AL", "fips": "01003", "name": "Summerdale School", "zip": "36580", "lat": 30.488992, "country": "Baldwin County", "lon": -87.695046, "addr": "400 E Broadway"}, {"city": "Bon Secour", "state": "AL", "fips": "01003", "name": "Swift Elementary School", "zip": "36511", "lat": 30.316295, "country": "Baldwin County", "lon": -87.728368, "addr": "6330 Bon Secour Hwy"}, {"city": "Fairhope", "state": "AL", "fips": "01003", "name": "Fairhope High School", "zip": "36532", "lat": 30.498068, "country": "Baldwin County", "lon": -87.8836, "addr": "18800 Greeno Rd"}, {"city": "Robertsdale", "state": "AL", "fips": "01003", "name": "Central Baldwin Middle School", "zip": "36576", "lat": 30.582716, "country": "Baldwin County", "lon": -87.727747, "addr": "24545 State Highway 59"}, {"city": "Orange Beach", "state": "AL", "fips": "01003", "name": "Orange Beach Elementary School", "zip": "36561", "lat": 30.297043, "country": "Baldwin County", "lon": -87.557752, "addr": "4900 Wilson Blvd"}, {"city": "Spanish Fort", "state": "AL", "fips": "01003", "name": "Rockwell Elementary School", "zip": "36527", "lat": 30.677715, "country": "Baldwin County", "lon": -87.847823, "addr": "10183 US Highway 31"}, {"city": "Elberta", "state": "AL", "fips": "01003", "name": "Elberta Elementary School", "zip": "36530", "lat": 30.412994, "country": "Baldwin County", "lon": -87.584406, "addr": "25820 Highway 98"}, {"city": "Gulf Shores", "state": "AL", "fips": "01003", "name": "Gulf Shores High School", "zip": "36542", "lat": 30.269146, "country": "Baldwin County", "lon": -87.675805, "addr": "600 E 15th Ave"}, {"city": "Foley", "state": "AL", "fips": "01003", "name": "Magnolia School", "zip": "36535", "lat": 30.419802, "country": "Baldwin County", "lon": -87.743575, "addr": "1 Jaguar Loop"}, {"city": "Fairhope", "state": "AL", "fips": "01003", "name": "J Larry Newton School", "zip": "36532", "lat": 30.473661, "country": "Baldwin County", "lon": -87.85694, "addr": "9761 County Road 32"}, {"city": "Bay Minette", "state": "AL", "fips": "01003", "name": "North Baldwin Center For Technology", "zip": "36507", "lat": 30.865582, "country": "Baldwin County", "lon": -87.783729, "addr": "505 Dr Martin Luther King Blvd"}, {"city": "Robertsdale", "state": "AL", "fips": "01003", "name": "South Baldwin Center For Technology", "zip": "36567", "lat": 30.549516, "country": "Baldwin County", "lon": -87.696247, "addr": "19200 Carolina Street"}, {"city": "Gulf Shores", "state": "AL", "fips": "01003", "name": "Gulf Shores Elementary School", "zip": "36542", "lat": 30.268969, "country": "Baldwin County", "lon": -87.68009, "addr": "1600 East 3rd St"}, {"city": "Bay Minette", "state": "AL", "fips": "01003", "name": "Bay Minette Elementary School", "zip": "36507", "lat": 30.890398, "country": "Baldwin County", "lon": -87.774686, "addr": "800 Blackburn Ave"}, {"city": "Daphne", "state": "AL", "fips": "01003", "name": "Daphne Elementary School", "zip": "36526", "lat": 30.613027, "country": "Baldwin County", "lon": -87.904298, "addr": "2307 Main St"}, {"city": "Fairhope", "state": "AL", "fips": "01003", "name": "Fairhope Intermediate School", "zip": "36532", "lat": 30.526382, "country": "Baldwin County", "lon": -87.876402, "addr": "2 N Bishop Rd"}, {"city": "Fairhope", "state": "AL", "fips": "01003", "name": "Fairhope Elementary School", "zip": "36532", "lat": 30.5305, "country": "Baldwin County", "lon": -87.901665, "addr": "408 N Section Street"}, {"city": "Foley", "state": "AL", "fips": "01003", "name": "Foley Elementary School", "zip": "36535", "lat": 30.409549, "country": "Baldwin County", "lon": -87.690853, "addr": "450 N Cedar Street"}, {"city": "Foley", "state": "AL", "fips": "01003", "name": "Foley Intermediate School", "zip": "36535", "lat": 30.386036, "country": "Baldwin County", "lon": -87.69239, "addr": "2000 S Cedar St"}, {"city": "Loxley", "state": "AL", "fips": "01003", "name": "Loxley Elementary School", "zip": "36551", "lat": 30.614408, "country": "Baldwin County", "lon": -87.758576, "addr": "4999 South Magnolia St"}, {"city": "Bay Minette", "state": "AL", "fips": "01003", "name": "Pine Grove Elementary School", "zip": "36507", "lat": 30.865417, "country": "Baldwin County", "lon": -87.74966, "addr": "43980 Pine Grove Rd"}, {"city": "Robertsdale", "state": "AL", "fips": "01003", "name": "Robertsdale Elementary School", "zip": "36567", "lat": 30.551916, "country": "Baldwin County", "lon": -87.698513, "addr": "1 Cub Drive"}, {"city": "Daphne", "state": "AL", "fips": "01003", "name": "Daphne High School", "zip": "36526", "lat": 30.638818, "country": "Baldwin County", "lon": -87.86408, "addr": "9300 Champions Way"}, {"city": "Bay Minette", "state": "AL", "fips": "01003", "name": "Delta Elementary School", "zip": "36507", "lat": 30.79009, "country": "Baldwin County", "lon": -87.849084, "addr": "10251 White House Fork Rd"}, {"city": "Foley", "state": "AL", "fips": "01003", "name": "Foley High School", "zip": "36535", "lat": 30.381721, "country": "Baldwin County", "lon": -87.689321, "addr": "1 Pride Pl"}, {"city": "Bay Minette", "state": "AL", "fips": "01003", "name": "Baldwin County High School", "zip": "36507", "lat": 30.893671, "country": "Baldwin County", "lon": -87.794007, "addr": "One Tiger Dr"}, {"city": "Bay Minette", "state": "AL", "fips": "01003", "name": "Bay Minette Middle School", "zip": "36507", "lat": 30.893827, "country": "Baldwin County", "lon": -87.780681, "addr": "1311 W 13th Street"}, {"city": "Spanish Fort", "state": "AL", "fips": "01003", "name": "Spanish Fort Middle School", "zip": "36527", "lat": 30.71514, "country": "Baldwin County", "lon": -87.853961, "addr": "33899 Jimmy Faulkner Drive"}, {"city": "Daphne", "state": "AL", "fips": "01003", "name": "Daphne East Elementary School", "zip": "36526", "lat": 30.614061, "country": "Baldwin County", "lon": -87.869867, "addr": "26651 County Road 13"}, {"city": "Spanish Fort", "state": "AL", "fips": "01003", "name": "Spanish Fort High School", "zip": "36527", "lat": 30.688661, "country": "Baldwin County", "lon": -87.854082, "addr": "One Plaza De Toros"}, {"city": "Robertsdale", "state": "AL", "fips": "01003", "name": "CF Taylor Alternative School", "zip": "36567", "lat": 30.552507, "country": "Baldwin County", "lon": -87.698735, "addr": "19150 Wilters Street"}, {"city": "Farihope", "state": "AL", "fips": "01003", "name": "Baldwin County Virtual School", "zip": "36532", "lat": 30.522039, "country": "Baldwin County", "lon": -87.901298, "addr": "450 Fairhope Avenue"}, {"city": "Clayton", "state": "AL", "fips": "01005", "name": "Barbour County High School", "zip": "36016", "lat": 31.868278, "country": "Barbour County", "lon": -85.44613, "addr": "165 S Midway"}, {"city": "Louisville", "state": "AL", "fips": "01005", "name": "Barbour County Primary School", "zip": "36048", "lat": 31.778742, "country": "Barbour County", "lon": -85.550847, "addr": "81 Victoria Street"}, {"city": "Louisville", "state": "AL", "fips": "01005", "name": "Barbour County Intermediate School", "zip": "36048", "lat": 31.7804, "country": "Barbour County", "lon": -85.55456, "addr": "18 Beaty Drive"}, {"city": "Bessemer", "state": "AL", "fips": "01073", "name": "Greenwood Elementary School", "zip": "35022", "lat": 33.334137, "country": "Jefferson County", "lon": -86.933327, "addr": "5012 Roselyn Road Southeast"}, {"city": "Bessemer", "state": "AL", "fips": "01073", "name": "Charles F Hard Elementary School", "zip": "35020", "lat": 33.409709, "country": "Jefferson County", "lon": -86.941039, "addr": "2801 Arlington Ave"}, {"city": "Bessemer", "state": "AL", "fips": "01073", "name": "Bessemer City Middle School", "zip": "35020", "lat": 33.368618, "country": "Jefferson County", "lon": -86.985203, "addr": "100 High School Drive"}, {"city": "Bessemer", "state": "AL", "fips": "01073", "name": "Bessemer City High School", "zip": "35022", "lat": 33.370885, "country": "Jefferson County", "lon": -86.999217, "addr": "4950 Premiere Parkway"}, {"city": "Bessemer", "state": "AL", "fips": "01073", "name": "Jonesboro Elementary School", "zip": "35020", "lat": 33.378496, "country": "Jefferson County", "lon": -86.958679, "addr": "125 Owen Ave"}, {"city": "Bessemer", "state": "AL", "fips": "01073", "name": "Westhills Elementary School", "zip": "35022", "lat": 33.378743, "country": "Jefferson County", "lon": -86.980463, "addr": "710 Glenn Rd"}, {"city": "Bessemer", "state": "AL", "fips": "01073", "name": "New Horizon Alternative School", "zip": "35020", "lat": 33.402275, "country": "Jefferson County", "lon": -86.958161, "addr": "1701 6th Ave N"}, {"city": "Bessemer", "state": "AL", "fips": "01073", "name": "Bessemer Center For Technology", "zip": "35022", "lat": 33.370885, "country": "Jefferson County", "lon": -86.999217, "addr": "4940 Premiere Parkway"}, {"city": "Bessemer", "state": "AL", "fips": "01073", "name": "Abrams Elementary School", "zip": "35020", "lat": 33.412572, "country": "Jefferson County", "lon": -86.960252, "addr": "1200 23rd Street N"}, {"city": "Centreville", "state": "AL", "fips": "01007", "name": "Bibb County High School", "zip": "35042", "lat": 32.947233, "country": "Bibb County", "lon": -87.142577, "addr": "220 Birmingham Rd"}, {"city": "Centreville", "state": "AL", "fips": "01007", "name": "Centreville Middle School", "zip": "35042", "lat": 32.943214, "country": "Bibb County", "lon": -87.115079, "addr": "1621 Montgomery Hwy"}, {"city": "Brent", "state": "AL", "fips": "01007", "name": "Brent Elementary School", "zip": "35034", "lat": 32.942416, "country": "Bibb County", "lon": -87.162241, "addr": "160 4th Street"}, {"city": "Randolph", "state": "AL", "fips": "01007", "name": "Randolph Elementary School", "zip": "36792", "lat": 32.901176, "country": "Bibb County", "lon": -86.906058, "addr": "7259 Highway 36"}, {"city": "West Blocton", "state": "AL", "fips": "01007", "name": "West Blocton Elementary School", "zip": "35184", "lat": 33.114576, "country": "Bibb County", "lon": -87.125381, "addr": "828 Cahaba River Dr"}, {"city": "West Blocton", "state": "AL", "fips": "01007", "name": "West Blocton High School", "zip": "35184", "lat": 33.113086, "country": "Bibb County", "lon": -87.128399, "addr": "4734 Truman Aldrich Parkway"}, {"city": "West Blocton", "state": "AL", "fips": "01007", "name": "Bibb County Career Academy", "zip": "35184", "lat": 33.05182, "country": "Bibb County", "lon": -87.135972, "addr": "17191 Highway 5"}, {"city": "West Blocton", "state": "AL", "fips": "01007", "name": "West Blocton Middle School", "zip": "35184", "lat": 33.112679, "country": "Bibb County", "lon": -87.131317, "addr": "4721 Truman Aldrich Pkwy"}, {"city": "Woodstock", "state": "AL", "fips": "01007", "name": "Woodstock Elementary School", "zip": "35188", "lat": 33.209812, "country": "Bibb County", "lon": -87.137674, "addr": "19456 Eastern Valley Rd"}, {"city": "Birmingham", "state": "AL", "fips": "01073", "name": "Engle Day Treatment", "zip": "35203", "lat": 33.519706, "country": "Jefferson County", "lon": -86.808745, "addr": "2015 Park Place N"}, {"city": "Birmingham", "state": "AL", "fips": "01073", "name": "Avondale Elementary School", "zip": "35222", "lat": 33.51687, "country": "Jefferson County", "lon": -86.771234, "addr": "4000 8th Ct S"}, {"city": "Birmingham", "state": "AL", "fips": "01073", "name": "Barrett Elementary School", "zip": "35206", "lat": 33.559872, "country": "Jefferson County", "lon": -86.728095, "addr": "7601 Division Ave"}, {"city": "Birmingham", "state": "AL", "fips": "01073", "name": "Charles A Brown Elementary School", "zip": "35208", "lat": 33.485642, "country": "Jefferson County", "lon": -86.899792, "addr": "4811 Court J"}, {"city": "Birmingham", "state": "AL", "fips": "01073", "name": "Bush K8", "zip": "35205", "lat": 33.487531, "country": "Jefferson County", "lon": -86.829005, "addr": "1832 Center Way S"}, {"city": "Birmingham", "state": "AL", "fips": "01073", "name": "Central Park Elementary School", "zip": "35208", "lat": 33.484223, "country": "Jefferson County", "lon": -86.885946, "addr": "4915 Ave Q"}, {"city": "Birmingham", "state": "AL", "fips": "01073", "name": "Christian School", "zip": "35206", "lat": 33.580532, "country": "Jefferson County", "lon": -86.690317, "addr": "725 Mountain Dr"}, {"city": "Birmingham", "state": "AL", "fips": "01073", "name": "Epic School", "zip": "35205", "lat": 33.494731, "country": "Jefferson County", "lon": -86.813244, "addr": "1000 10th Ave S"}, {"city": "Birmingham", "state": "AL", "fips": "01073", "name": "Oliver K5 School", "zip": "35212", "lat": 33.536846, "country": "Jefferson County", "lon": -86.731935, "addr": "6871 6th Court S"}, {"city": "Birmingham", "state": "AL", "fips": "01073", "name": "Green Acres Middle School", "zip": "35228", "lat": 33.470664, "country": "Jefferson County", "lon": -86.897132, "addr": "1220 67th Street West"}, {"city": "Birmingham", "state": "AL", "fips": "01073", "name": "Hemphill Elementary School", "zip": "35211", "lat": 33.493138, "country": "Jefferson County", "lon": -86.851938, "addr": "714 12th Street SW"}, {"city": "Birmingham", "state": "AL", "fips": "01073", "name": "Hudson KEight School", "zip": "35207", "lat": 33.555745, "country": "Jefferson County", "lon": -86.804788, "addr": "3300 F L Shuttlesworth Dr"}, {"city": "Birmingham", "state": "AL", "fips": "01073", "name": "Huffman Middle School", "zip": "35215", "lat": 33.594988, "country": "Jefferson County", "lon": -86.692793, "addr": "517 Huffman Rd"}, {"city": "Birmingham", "state": "AL", "fips": "01073", "name": "Huffman High SchoolMagnet", "zip": "35215", "lat": 33.612911, "country": "Jefferson County", "lon": -86.681986, "addr": "900 Springville Rd"}, {"city": "Birmingham", "state": "AL", "fips": "01073", "name": "Inglenook School", "zip": "35217", "lat": 33.563814, "country": "Jefferson County", "lon": -86.781507, "addr": "4120 Inglenook Street"}, {"city": "Birmingham", "state": "AL", "fips": "01073", "name": "Minor Elementary School", "zip": "35218", "lat": 33.505208, "country": "Jefferson County", "lon": -86.882368, "addr": "2425 Ave SEnsley"}, {"city": "Birmingham", "state": "AL", "fips": "01073", "name": "Norwood Elementary School", "zip": "35234", "lat": 33.54117, "country": "Jefferson County", "lon": -86.802011, "addr": "3136 Norwood Blvd"}, {"city": "Birmingham", "state": "AL", "fips": "01073", "name": "JacksonOlin High School", "zip": "35218", "lat": 33.518499, "country": "Jefferson County", "lon": -86.892235, "addr": "1300 Avenue F Ensley"}, {"city": "Birmingham", "state": "AL", "fips": "01073", "name": "Parker High School", "zip": "35204", "lat": 33.514596, "country": "Jefferson County", "lon": -86.829301, "addr": "400 Abraham Woods Jr Blvd"}, {"city": "Birmingham", "state": "AL", "fips": "01073", "name": "Princeton School", "zip": "35208", "lat": 33.502574, "country": "Jefferson County", "lon": -86.860673, "addr": "1425 2nd Ave W"}, {"city": "Birmingham", "state": "AL", "fips": "01073", "name": "WE Putnam Middle SchoolMagnet", "zip": "35210", "lat": 33.527992, "country": "Jefferson County", "lon": -86.714067, "addr": "1757 Montclair Rd"}, {"city": "Birmingham", "state": "AL", "fips": "01073", "name": "Ramsay High School", "zip": "35205", "lat": 33.497635, "country": "Jefferson County", "lon": -86.798597, "addr": "1800 13th Ave S"}, {"city": "Birmingham", "state": "AL", "fips": "01073", "name": "Robinson Elementary School", "zip": "35206", "lat": 33.572699, "country": "Jefferson County", "lon": -86.719297, "addr": "8400 1st Ave S"}, {"city": "Birmingham", "state": "AL", "fips": "01073", "name": "Smith Middle School", "zip": "35215", "lat": 33.610386, "country": "Jefferson County", "lon": -86.701027, "addr": "1124 Five Mile Rd"}, {"city": "Birmingham", "state": "AL", "fips": "01073", "name": "Tuggle Elementary School", "zip": "35204", "lat": 33.525253, "country": "Jefferson County", "lon": -86.829686, "addr": "412 12th Ct N"}, {"city": "Birmingham", "state": "AL", "fips": "01073", "name": "Washington Elementary School", "zip": "35205", "lat": 33.496044, "country": "Jefferson County", "lon": -86.828323, "addr": "115 Fourth Avenue South"}, {"city": "Birmingham", "state": "AL", "fips": "01073", "name": "Jones Valley Middle School", "zip": "35221", "lat": 33.464299, "country": "Jefferson County", "lon": -86.881987, "addr": "2000 31st Street SW"}, {"city": "Birmingham", "state": "AL", "fips": "01073", "name": "Wenonah High School", "zip": "35221", "lat": 33.452482, "country": "Jefferson County", "lon": -86.885933, "addr": "2800 Wilson Rd SW"}, {"city": "Birmingham", "state": "AL", "fips": "01073", "name": "Wilkerson Middle School", "zip": "35204", "lat": 33.52307, "country": "Jefferson County", "lon": -86.838679, "addr": "116 11th Ct W"}, {"city": "Birmingham", "state": "AL", "fips": "01073", "name": "Woodlawn High SchoolMagnet", "zip": "35212", "lat": 33.54223, "country": "Jefferson County", "lon": -86.752123, "addr": "5620 First Ave N"}, {"city": "Birmingham", "state": "AL", "fips": "01073", "name": "Wylam K8", "zip": "35224", "lat": 33.505353, "country": "Jefferson County", "lon": -86.916759, "addr": "701 Erie Street"}, {"city": "Birmingham", "state": "AL", "fips": "01073", "name": "Family Court Elementary School", "zip": "35204", "lat": 33.505102, "country": "Jefferson County", "lon": -86.833827, "addr": "120 2nd Court N"}, {"city": "Birmingham", "state": "AL", "fips": "01073", "name": "City Elementary", "zip": "35204", "lat": 33.515779, "country": "Jefferson County", "lon": -86.825781, "addr": "901 9th Avenue North"}, {"city": "Birmingham", "state": "AL", "fips": "01073", "name": "Dupuy Alternative School", "zip": "35212", "lat": 33.547981, "country": "Jefferson County", "lon": -86.769366, "addr": "4500 14th Ave N"}, {"city": "Birmingham", "state": "AL", "fips": "01073", "name": "Adolescent Day Treatment", "zip": "35203", "lat": 33.519706, "country": "Jefferson County", "lon": -86.808745, "addr": "2015 Park Place N"}, {"city": "Birmingham", "state": "AL", "fips": "01073", "name": "South Hampton K8", "zip": "35214", "lat": 33.542663, "country": "Jefferson County", "lon": -86.892409, "addr": "565 Sheridan Rd Pratt City"}, {"city": "Birmingham", "state": "AL", "fips": "01073", "name": "Martha Gaskins K5", "zip": "35215", "lat": 33.593801, "country": "Jefferson County", "lon": -86.70596, "addr": "200 Dalton Drive"}, {"city": "Birmingham", "state": "AL", "fips": "01073", "name": "George Washington Carver High School", "zip": "35207", "lat": 33.558361, "country": "Jefferson County", "lon": -86.827991, "addr": "3900 24th St N"}, {"city": "Birmingham", "state": "AL", "fips": "01073", "name": "Glen Iris Elementary School", "zip": "35205", "lat": 33.494112, "country": "Jefferson County", "lon": -86.809735, "addr": "1115 11th Street South"}, {"city": "Birmingham", "state": "AL", "fips": "01073", "name": "Gateway", "zip": "35212", "lat": 33.545906, "country": "Jefferson County", "lon": -86.758161, "addr": "5201 Airport Hwy"}, {"city": "Birmingham", "state": "AL", "fips": "01073", "name": "Arrington Middle School", "zip": "35211", "lat": 33.474331, "country": "Jefferson County", "lon": -86.87033, "addr": "2101 Jefferson Ave SW"}, {"city": "Birmingham", "state": "AL", "fips": "01073", "name": "Family Court High School", "zip": "35204", "lat": 33.505102, "country": "Jefferson County", "lon": -86.833827, "addr": "120 2nd Court N"}, {"city": "Birmingham", "state": "AL", "fips": "01073", "name": "Sun Valley Elementary School", "zip": "35215", "lat": 33.636304, "country": "Jefferson County", "lon": -86.715605, "addr": "1010 18th Ave NW"}, {"city": "Birmingham", "state": "AL", "fips": "01073", "name": "Homebound Elementary School", "zip": "35203", "lat": 33.519706, "country": "Jefferson County", "lon": -86.808745, "addr": "2015 Park Place"}, {"city": "Birmingham", "state": "AL", "fips": "01073", "name": "Homebound High School", "zip": "35203", "lat": 33.519706, "country": "Jefferson County", "lon": -86.808745, "addr": "2015 Park Place N"}, {"city": "Birmingham", "state": "AL", "fips": "01073", "name": "Ossie Ware Mitchell Middle School", "zip": "35206", "lat": 33.565762, "country": "Jefferson County", "lon": -86.717299, "addr": "501 81st Street South"}, {"city": "Birmingham", "state": "AL", "fips": "01073", "name": "Phillips Academy", "zip": "35203", "lat": 33.523216, "country": "Jefferson County", "lon": -86.805101, "addr": "2316 7th Avenue North"}, {"city": "Birmingham", "state": "AL", "fips": "01073", "name": "Huffman Academy", "zip": "35215", "lat": 33.6191, "country": "Jefferson County", "lon": -86.680241, "addr": "1212 Cheyenne Boulevard"}, {"city": "Birmingham", "state": "AL", "fips": "01073", "name": "West End Academy", "zip": "35211", "lat": 33.484021, "country": "Jefferson County", "lon": -86.867949, "addr": "1840 Pearson Avenue SW"}, {"city": "Birmingham", "state": "AL", "fips": "01073", "name": "Bush Hills Academy", "zip": "35208", "lat": 33.51595, "country": "Jefferson County", "lon": -86.864873, "addr": "900 16th Street West"}, {"city": "Birmingham", "state": "AL", "fips": "01073", "name": "Hayes K8", "zip": "35222", "lat": 33.532348, "country": "Jefferson County", "lon": -86.771083, "addr": "505 43rd Street North"}, {"city": "Birmingham", "state": "AL", "fips": "01073", "name": "Oxmoor K5", "zip": "35211", "lat": 33.428598, "country": "Jefferson County", "lon": -86.87471, "addr": "3600 Sydney Drive"}, {"city": "Hayden", "state": "AL", "fips": "01009", "name": "Hayden Elementary School", "zip": "35079", "lat": 33.881445, "country": "Blount County", "lon": -86.7706, "addr": "4111 State Highway 160"}, {"city": "Oneonta", "state": "AL", "fips": "01009", "name": "Appalachian  School", "zip": "35121", "lat": 33.887948, "country": "Blount County", "lon": -86.397141, "addr": "350 County Highway 12"}, {"city": "Blountsville", "state": "AL", "fips": "01009", "name": "Blountsville Elementary School", "zip": "35031", "lat": 34.084738, "country": "Blount County", "lon": -86.585974, "addr": "260 Page St"}, {"city": "Cleveland", "state": "AL", "fips": "01009", "name": "Cleveland High School", "zip": "35049", "lat": 33.993224, "country": "Blount County", "lon": -86.573627, "addr": "71 High School St"}, {"city": "Hayden", "state": "AL", "fips": "01009", "name": "Hayden Primary School", "zip": "35079", "lat": 33.883398, "country": "Blount County", "lon": -86.769445, "addr": "160 Bracken Ln"}, {"city": "Hayden", "state": "AL", "fips": "01009", "name": "Hayden High School", "zip": "35079", "lat": 33.886936, "country": "Blount County", "lon": -86.768139, "addr": "125 Atwood Road"}, {"city": "Blountsville", "state": "AL", "fips": "01009", "name": "JB Pennington High School", "zip": "35031", "lat": 34.085829, "country": "Blount County", "lon": -86.588809, "addr": "81 College St"}, {"city": "Locust Fork", "state": "AL", "fips": "01009", "name": "Locust Fork High School", "zip": "35097", "lat": 33.908376, "country": "Blount County", "lon": -86.617886, "addr": "77 School Rd"}, {"city": "Remlap", "state": "AL", "fips": "01009", "name": "Southeastern School", "zip": "35133", "lat": 33.830801, "country": "Blount County", "lon": -86.58307, "addr": "18770 State Highway 75"}, {"city": "Blountsville", "state": "AL", "fips": "01009", "name": "Susan Moore High School", "zip": "35031", "lat": 34.082796, "country": "Blount County", "lon": -86.430261, "addr": "4040 Susan Moore Rd"}, {"city": "Oneonta", "state": "AL", "fips": "01009", "name": "Allgood Alternative School", "zip": "35121", "lat": 33.90548, "country": "Blount County", "lon": -86.51249, "addr": "45 Community Rd"}, {"city": "Cleveland", "state": "AL", "fips": "01009", "name": "Blount County Learning Center", "zip": "35049", "lat": 33.992944, "country": "Blount County", "lon": -86.57256, "addr": "189 Horton Ln"}, {"city": "Cleveland", "state": "AL", "fips": "01009", "name": "Blount County Career Technical Center", "zip": "35049", "lat": 33.991488, "country": "Blount County", "lon": -86.561712, "addr": "61500 US Highway 231"}, {"city": "Locust Fork", "state": "AL", "fips": "01009", "name": "Locust Fork Elementary", "zip": "35097", "lat": 33.907326, "country": "Blount County", "lon": -86.618464, "addr": "155 School Rd"}, {"city": "Cleveland", "state": "AL", "fips": "01009", "name": "Cleveland Elementary School", "zip": "35049", "lat": 33.993417, "country": "Blount County", "lon": -86.572919, "addr": "115 Stadium Dr"}, {"city": "Blountsville", "state": "AL", "fips": "01009", "name": "Susan Moore Elementary School", "zip": "35031", "lat": 34.083162, "country": "Blount County", "lon": -86.429788, "addr": "3996 Susan Moore Rd"}, {"city": "Hayden", "state": "AL", "fips": "01009", "name": "Hayden Middle School", "zip": "35079", "lat": 33.890057, "country": "Blount County", "lon": -86.756575, "addr": "310 Second Avenue"}, {"city": "Brewton", "state": "AL", "fips": "01053", "name": "Brewton Elementary School", "zip": "36426", "lat": 31.118151, "country": "Escambia County", "lon": -87.07344, "addr": "901 Douglas Ave"}, {"city": "Brewton", "state": "AL", "fips": "01053", "name": "Brewton Middle School", "zip": "36426", "lat": 31.154287, "country": "Escambia County", "lon": -87.058574, "addr": "1384 Old Castleberry Road"}, {"city": "Brewton", "state": "AL", "fips": "01053", "name": "TR Miller High School", "zip": "36426", "lat": 31.138239, "country": "Escambia County", "lon": -87.070403, "addr": "1835 Douglas Ave"}, {"city": "Union Springs", "state": "AL", "fips": "01011", "name": "Bullock County High School", "zip": "36089", "lat": 32.129773, "country": "Bullock County", "lon": -85.722772, "addr": "108 Hardaway Ave"}, {"city": "Union Springs", "state": "AL", "fips": "01011", "name": "South Highlands Middle School", "zip": "36089", "lat": 32.132765, "country": "Bullock County", "lon": -85.720119, "addr": "700 Bernard Street"}, {"city": "Union Springs", "state": "AL", "fips": "01011", "name": "Union Springs Elementary School", "zip": "36089", "lat": 32.145793, "country": "Bullock County", "lon": -85.719487, "addr": "211 Conecuh Avenue West"}, {"city": "Union Springs", "state": "AL", "fips": "01011", "name": "Bullock County Career Technical Center", "zip": "36089", "lat": 32.142862, "country": "Bullock County", "lon": -85.712739, "addr": "304 Blackmon Ave E"}, {"city": "Greenville", "state": "AL", "fips": "01013", "name": "Greenville High School", "zip": "36037", "lat": 31.837092, "country": "Butler County", "lon": -86.651888, "addr": "100 Tiger Dr"}, {"city": "Greenville", "state": "AL", "fips": "01013", "name": "Greenville Middle School", "zip": "36037", "lat": 31.838076, "country": "Butler County", "lon": -86.625332, "addr": "300 Overlook Rd"}, {"city": "McKenzie", "state": "AL", "fips": "01013", "name": "McKenzie High School", "zip": "36456", "lat": 31.545343, "country": "Butler County", "lon": -86.715153, "addr": "221 North Garland Road"}, {"city": "Greenville", "state": "AL", "fips": "01013", "name": "WO Parmer Elementary School", "zip": "36037", "lat": 31.833685, "country": "Butler County", "lon": -86.624527, "addr": "100 Butler Circle"}, {"city": "Greenville", "state": "AL", "fips": "01013", "name": "Butler County Area Vocational School", "zip": "36037", "lat": 31.815009, "country": "Butler County", "lon": -86.626541, "addr": "211 School Highlands Road"}, {"city": "Greenville", "state": "AL", "fips": "01013", "name": "Greenville Elementary School", "zip": "36037", "lat": 31.834196, "country": "Butler County", "lon": -86.625602, "addr": "102 Butler Cir"}, {"city": "Georgiana", "state": "AL", "fips": "01013", "name": "Georgiana School", "zip": "36033", "lat": 31.628096, "country": "Butler County", "lon": -86.728948, "addr": "866 Highway 31 South"}, {"city": "Alexandria", "state": "AL", "fips": "01015", "name": "Alexandria High School", "zip": "36250", "lat": 33.775146, "country": "Calhoun County", "lon": -85.887066, "addr": "353 Stadium Dr"}, {"city": "Ohatchee", "state": "AL", "fips": "01015", "name": "Ohatchee High School", "zip": "36271", "lat": 33.785955, "country": "Calhoun County", "lon": -86.001352, "addr": "100 Cherokee Trl"}, {"city": "Anniston", "state": "AL", "fips": "01015", "name": "Saks Elementary School", "zip": "36206", "lat": 33.701835, "country": "Calhoun County", "lon": -85.832051, "addr": "31 Watson"}, {"city": "Anniston", "state": "AL", "fips": "01015", "name": "Saks High School", "zip": "36206", "lat": 33.702164, "country": "Calhoun County", "lon": -85.836741, "addr": "4401 Saks Rd"}, {"city": "Anniston", "state": "AL", "fips": "01015", "name": "Saks Middle School", "zip": "36206", "lat": 33.701185, "country": "Calhoun County", "lon": -85.834209, "addr": "32 Watson Street"}, {"city": "Weaver", "state": "AL", "fips": "01015", "name": "Weaver Elementary School", "zip": "36277", "lat": 33.754629, "country": "Calhoun County", "lon": -85.814565, "addr": "444 School Dr"}, {"city": "Weaver", "state": "AL", "fips": "01015", "name": "Weaver High School", "zip": "36277", "lat": 33.747111, "country": "Calhoun County", "lon": -85.830929, "addr": "917 Clairmont Dr"}, {"city": "Anniston", "state": "AL", "fips": "01015", "name": "Wellborn Elementary School", "zip": "36201", "lat": 33.651323, "country": "Calhoun County", "lon": -85.879517, "addr": "525 Cooper Cir"}, {"city": "Anniston", "state": "AL", "fips": "01015", "name": "White Plains High School", "zip": "36207", "lat": 33.746845, "country": "Calhoun County", "lon": -85.686703, "addr": "250 White Plains Rd"}, {"city": "Jacksonville", "state": "AL", "fips": "01015", "name": "Calhoun County Alternative School", "zip": "36265", "lat": 33.801928, "country": "Calhoun County", "lon": -85.758243, "addr": "1200 Church Avenue SE"}, {"city": "Jacksonville", "state": "AL", "fips": "01015", "name": "Calhoun County Career Technical Center", "zip": "36265", "lat": 33.801817, "country": "Calhoun County", "lon": -85.758265, "addr": "1200 Church St SE"}, {"city": "Ohatchee", "state": "AL", "fips": "01015", "name": "Ohatchee Elementary School", "zip": "36271", "lat": 33.788334, "country": "Calhoun County", "lon": -86.003034, "addr": "365 J Street"}, {"city": "Jacksonville", "state": "AL", "fips": "01015", "name": "Pleasant Valley Elementary School", "zip": "36265", "lat": 33.885623, "country": "Calhoun County", "lon": -85.810914, "addr": "265 Mark Green Road"}, {"city": "Anniston", "state": "AL", "fips": "01015", "name": "White Plains Elementary School", "zip": "36207", "lat": 33.723612, "country": "Calhoun County", "lon": -85.673191, "addr": "5600 Alabama Hwy 9"}, {"city": "Jacksonville", "state": "AL", "fips": "01015", "name": "Pleasant Valley High School", "zip": "36265", "lat": 33.885484, "country": "Calhoun County", "lon": -85.816324, "addr": "4141 Pleasant Valley Rd"}, {"city": "Anniston", "state": "AL", "fips": "01015", "name": "Wellborn High School", "zip": "36201", "lat": 33.652501, "country": "Calhoun County", "lon": -85.882003, "addr": "135 Pinson Rd"}, {"city": "Alexandria", "state": "AL", "fips": "01015", "name": "Alexandria Elementary School", "zip": "36250", "lat": 33.775731, "country": "Calhoun County", "lon": -85.883616, "addr": "2525 AlexandriaWellington Rd"}, {"city": "Anniston", "state": "AL", "fips": "01015", "name": "White Plains Middle School", "zip": "36207", "lat": 33.723721, "country": "Calhoun County", "lon": -85.671905, "addr": "5800 Al Highway 9"}, {"city": "Alexandria", "state": "AL", "fips": "01015", "name": "Alexandria Middle School", "zip": "36250", "lat": 33.77425, "country": "Calhoun County", "lon": -85.886631, "addr": "353 Stadium Dr"}, {"city": "Lafayette", "state": "AL", "fips": "01017", "name": "Lafayette Eastside Elementary School", "zip": "36862", "lat": 32.897956, "country": "Chambers County", "lon": -85.394406, "addr": "300 Ave A SE"}, {"city": "Valley", "state": "AL", "fips": "01017", "name": "Fairfax Elementary School", "zip": "36854", "lat": 32.791208, "country": "Chambers County", "lon": -85.187177, "addr": "502 Blvd"}, {"city": "Five Points", "state": "AL", "fips": "01017", "name": "Five Points Elementary School", "zip": "36855", "lat": 33.017341, "country": "Chambers County", "lon": -85.34369, "addr": "10180 County Road 222"}, {"city": "Lanett", "state": "AL", "fips": "01017", "name": "Huguley Elementary School", "zip": "36863", "lat": 32.834521, "country": "Chambers County", "lon": -85.228736, "addr": "3011 Phillips Rd"}, {"city": "Lafayette", "state": "AL", "fips": "01017", "name": "Lafayette High School", "zip": "36862", "lat": 32.899416, "country": "Chambers County", "lon": -85.396488, "addr": "214 1st Ave SE"}, {"city": "Valley", "state": "AL", "fips": "01017", "name": "Lafayette Lanier Elementary School", "zip": "36854", "lat": 32.813447, "country": "Chambers County", "lon": -85.171962, "addr": "6001 20th Ave"}, {"city": "Valley", "state": "AL", "fips": "01017", "name": "Bob HardingShawmut Elementary", "zip": "36854", "lat": 32.839967, "country": "Chambers County", "lon": -85.185017, "addr": "3301 23rd Dr"}, {"city": "Lafayette", "state": "AL", "fips": "01017", "name": "John P Powell Middle School", "zip": "36862", "lat": 32.888437, "country": "Chambers County", "lon": -85.396133, "addr": "700 Martin Luther King Drive"}, {"city": "Valley", "state": "AL", "fips": "01017", "name": "Valley High School", "zip": "36854", "lat": 32.802232, "country": "Chambers County", "lon": -85.181506, "addr": "501 Highway 29"}, {"city": "Valley", "state": "AL", "fips": "01017", "name": "W F Burns Middle School", "zip": "36854", "lat": 32.806429, "country": "Chambers County", "lon": -85.196353, "addr": "292 Johnson St"}, {"city": "Lafayette", "state": "AL", "fips": "01017", "name": "Chambers County Career Technology Center", "zip": "36862", "lat": 32.890312, "country": "Chambers County", "lon": -85.381482, "addr": "Area Vocational Center Dr"}, {"city": "Cedar Bluff", "state": "AL", "fips": "01019", "name": "Cedar Bluff High School", "zip": "35959", "lat": 34.219758, "country": "Cherokee County", "lon": -85.604506, "addr": "3655 Old Highway 9"}, {"city": "Centre", "state": "AL", "fips": "01019", "name": "Centre Elementary School", "zip": "35960", "lat": 34.149798, "country": "Cherokee County", "lon": -85.670511, "addr": "725 E Main St"}, {"city": "Centre", "state": "AL", "fips": "01019", "name": "Centre Middle School", "zip": "35960", "lat": 34.135634, "country": "Cherokee County", "lon": -85.651107, "addr": "1920 East Main Street"}, {"city": "Centre", "state": "AL", "fips": "01019", "name": "Cherokee County High School", "zip": "35960", "lat": 34.163845, "country": "Cherokee County", "lon": -85.658749, "addr": "910 Warrior Dr"}, {"city": "Gaylesville", "state": "AL", "fips": "01019", "name": "Gaylesville High School", "zip": "35973", "lat": 34.271056, "country": "Cherokee County", "lon": -85.560038, "addr": "760 Trojan Way"}, {"city": "Sand Rock", "state": "AL", "fips": "01019", "name": "Sand Rock High School", "zip": "35983", "lat": 34.240956, "country": "Cherokee County", "lon": -85.767388, "addr": "1950 Sand Rock Avenue"}, {"city": "Spring Garden", "state": "AL", "fips": "01019", "name": "Spring Garden High School", "zip": "36275", "lat": 33.985365, "country": "Cherokee County", "lon": -85.542865, "addr": "2430 County Road 29"}, {"city": "Centre", "state": "AL", "fips": "01019", "name": "Cherokee County Career  Technology Center", "zip": "35960", "lat": 34.159717, "country": "Cherokee County", "lon": -85.686489, "addr": "600 Bay Springs Rd"}, {"city": "Maplesville", "state": "AL", "fips": "01021", "name": "Isabella High School", "zip": "36750", "lat": 32.828651, "country": "Chilton County", "lon": -86.78558, "addr": "11338 County Road 15"}, {"city": "Jemison", "state": "AL", "fips": "01021", "name": "Jemison High School", "zip": "35085", "lat": 32.965539, "country": "Chilton County", "lon": -86.748258, "addr": "25195 US Highway 31"}, {"city": "Maplesville", "state": "AL", "fips": "01021", "name": "Maplesville High School", "zip": "36750", "lat": 32.803101, "country": "Chilton County", "lon": -86.878352, "addr": "1256 AL Highway 139"}, {"city": "Thorsby", "state": "AL", "fips": "01021", "name": "Thorsby High School", "zip": "35171", "lat": 32.913628, "country": "Chilton County", "lon": -86.716337, "addr": "54 Opportunity Dr"}, {"city": "Clanton", "state": "AL", "fips": "01021", "name": "Clanton Elementary School", "zip": "35045", "lat": 32.824778, "country": "Chilton County", "lon": -86.614466, "addr": "1000 Cloverleaf Dr"}, {"city": "Clanton", "state": "AL", "fips": "01021", "name": "Clanton Middle School", "zip": "35045", "lat": 32.826221, "country": "Chilton County", "lon": -86.61319, "addr": "835 Temple Road"}, {"city": "Verbena", "state": "AL", "fips": "01021", "name": "Verbena High School", "zip": "36091", "lat": 32.74895, "country": "Chilton County", "lon": -86.508809, "addr": "202 County Road 510"}, {"city": "Jemison", "state": "AL", "fips": "01021", "name": "Jemison Middle School", "zip": "35085", "lat": 32.964356, "country": "Chilton County", "lon": -86.747493, "addr": "25095 US Hwy 31"}, {"city": "Clanton", "state": "AL", "fips": "01021", "name": "W A Lecroy Career  Technical Center", "zip": "35045", "lat": 32.832144, "country": "Chilton County", "lon": -86.673623, "addr": "2829 4th Ave N"}, {"city": "Clanton", "state": "AL", "fips": "01021", "name": "Clanton Intermediate School", "zip": "35045", "lat": 32.824259, "country": "Chilton County", "lon": -86.611538, "addr": "825 Temple Road"}, {"city": "Clanton", "state": "AL", "fips": "01021", "name": "Chilton County High School", "zip": "35045", "lat": 32.821904, "country": "Chilton County", "lon": -86.612701, "addr": "1214 7th St S"}, {"city": "Jemison", "state": "AL", "fips": "01021", "name": "Jemison Elementary School", "zip": "35085", "lat": 32.982295, "country": "Chilton County", "lon": -86.729515, "addr": "1495 County Road 44"}, {"city": "Clanton", "state": "AL", "fips": "01021", "name": "Chilton County Alternative School", "zip": "35045", "lat": 32.840903, "country": "Chilton County", "lon": -86.623103, "addr": "102 1st Street"}, {"city": "Jemison", "state": "AL", "fips": "01021", "name": "Jemison Intermediate School", "zip": "35085", "lat": 32.984464, "country": "Chilton County", "lon": -86.7296, "addr": "1491 County Road 44"}, {"city": "Gilbertown", "state": "AL", "fips": "01023", "name": "Southern Choctaw Elementary School", "zip": "36908", "lat": 31.842115, "country": "Choctaw County", "lon": -88.315873, "addr": "10935 Highway 17"}, {"city": "Butler", "state": "AL", "fips": "01023", "name": "Choctaw County High School", "zip": "36904", "lat": 32.079824, "country": "Choctaw County", "lon": -88.233243, "addr": "277 Tom Orr Drive"}, {"city": "Gilbertown", "state": "AL", "fips": "01023", "name": "Southern Choctaw High School", "zip": "36908", "lat": 31.84291, "country": "Choctaw County", "lon": -88.319282, "addr": "10941 Highway 17"}, {"city": "Butler", "state": "AL", "fips": "01023", "name": "Choctaw County Elementary", "zip": "36904", "lat": 32.081941, "country": "Choctaw County", "lon": -88.233589, "addr": "201 Tom Orr Drive"}, {"city": "Grove Hill", "state": "AL", "fips": "01025", "name": "Clarke County High School", "zip": "36451", "lat": 31.705821, "country": "Clarke County", "lon": -87.77412, "addr": "151 S Church"}, {"city": "Grove Hill", "state": "AL", "fips": "01025", "name": "Grove Hill Elementary School", "zip": "36451", "lat": 31.709137, "country": "Clarke County", "lon": -87.791617, "addr": "450 West Cobb Street"}, {"city": "Jackson", "state": "AL", "fips": "01025", "name": "Jackson Middle School", "zip": "36545", "lat": 31.512939, "country": "Clarke County", "lon": -87.894675, "addr": "235 College Ave"}, {"city": "Jackson", "state": "AL", "fips": "01025", "name": "Joe M Gillmore Elementary School", "zip": "36545", "lat": 31.529378, "country": "Clarke County", "lon": -87.895748, "addr": "133 Mayton Dr"}, {"city": "Grove Hill", "state": "AL", "fips": "01025", "name": "Wilson Hall Middle School", "zip": "36451", "lat": 31.703243, "country": "Clarke County", "lon": -87.764353, "addr": "401 Carter Drive"}, {"city": "Jackson", "state": "AL", "fips": "01025", "name": "Jackson Intermediate School", "zip": "36545", "lat": 31.53072, "country": "Clarke County", "lon": -87.896594, "addr": "2950 Highway 43"}, {"city": "Jackson", "state": "AL", "fips": "01025", "name": "Jackson High School", "zip": "36545", "lat": 31.548194, "country": "Clarke County", "lon": -87.885141, "addr": "321 Stanley Dr"}, {"city": "Ashland", "state": "AL", "fips": "01027", "name": "Ashland Elementary School", "zip": "36251", "lat": 33.270504, "country": "Clay County", "lon": -85.839114, "addr": "223 3rd Street Sw"}, {"city": "Lineville", "state": "AL", "fips": "01027", "name": "Lineville Elementary School", "zip": "36266", "lat": 33.310973, "country": "Clay County", "lon": -85.757743, "addr": "18 West Main"}, {"city": "Lineville", "state": "AL", "fips": "01027", "name": "Central Jr High School of Clay County", "zip": "36266", "lat": 33.290823, "country": "Clay County", "lon": -85.787937, "addr": "1 Bob Riley Drive"}, {"city": "Lineville", "state": "AL", "fips": "01027", "name": "Central High School of Clay County", "zip": "36266", "lat": 33.290823, "country": "Clay County", "lon": -85.787937, "addr": "1 Bob Riley Drive"}, {"city": "Heflin", "state": "AL", "fips": "01029", "name": "Cleburne County Elementary School", "zip": "36264", "lat": 33.647308, "country": "Cleburne County", "lon": -85.571808, "addr": "584 Evans Bridge Rd"}, {"city": "Heflin", "state": "AL", "fips": "01029", "name": "Cleburne County High School", "zip": "36264", "lat": 33.648138, "country": "Cleburne County", "lon": -85.571924, "addr": "520 Evans Bridge Rd"}, {"city": "Fruithurst", "state": "AL", "fips": "01029", "name": "Fruithurst Elementary School", "zip": "36262", "lat": 33.732187, "country": "Cleburne County", "lon": -85.436415, "addr": "222 School St"}, {"city": "Heflin", "state": "AL", "fips": "01029", "name": "Pleasant Grove Elementary School", "zip": "36264", "lat": 33.523462, "country": "Cleburne County", "lon": -85.63505, "addr": "9855 Highway 9"}, {"city": "Ranburne", "state": "AL", "fips": "01029", "name": "Ranburne High School", "zip": "36273", "lat": 33.523373, "country": "Cleburne County", "lon": -85.346519, "addr": "21045 Main St"}, {"city": "Heflin", "state": "AL", "fips": "01029", "name": "Cleburne County Career Technical School", "zip": "36264", "lat": 33.597278, "country": "Cleburne County", "lon": -85.482177, "addr": "11200 Highway 46"}, {"city": "Heflin", "state": "AL", "fips": "01029", "name": "Cleburne County Middle School", "zip": "36264", "lat": 33.646971, "country": "Cleburne County", "lon": -85.572406, "addr": "661 Duke Drive"}, {"city": "Ranburne", "state": "AL", "fips": "01029", "name": "Ranburne Elementary School", "zip": "36273", "lat": 33.523791, "country": "Cleburne County", "lon": -85.347288, "addr": "181 Young Dr"}, {"city": "Heflin", "state": "AL", "fips": "01029", "name": "Cleburne County Alternative School", "zip": "36264", "lat": 33.597278, "country": "Cleburne County", "lon": -85.482177, "addr": "11200 Highway 46"}, {"city": "Kinston", "state": "AL", "fips": "01031", "name": "Kinston School", "zip": "36453", "lat": 31.221294, "country": "Coffee County", "lon": -86.169864, "addr": "201 College Street"}, {"city": "Jack", "state": "AL", "fips": "01031", "name": "Zion Chapel High School", "zip": "36346", "lat": 31.566525, "country": "Coffee County", "lon": -86.010259, "addr": "29256 Highway 87"}, {"city": "New Brockton", "state": "AL", "fips": "01031", "name": "New Brockton High School", "zip": "36351", "lat": 31.380382, "country": "Coffee County", "lon": -85.935457, "addr": "210 South Tyler Street"}, {"city": "New Brockton", "state": "AL", "fips": "01031", "name": "New Brockton Elementary School", "zip": "36351", "lat": 31.390294, "country": "Coffee County", "lon": -85.921987, "addr": "504 North John Street"}, {"city": "Cherokee", "state": "AL", "fips": "01033", "name": "Cherokee Elementary School", "zip": "35616", "lat": 34.769543, "country": "Colbert County", "lon": -87.963872, "addr": "1305 North Pike"}, {"city": "Cherokee", "state": "AL", "fips": "01033", "name": "Cherokee High School", "zip": "35616", "lat": 34.76566, "country": "Colbert County", "lon": -87.963304, "addr": "850 High School Dr"}, {"city": "Leighton", "state": "AL", "fips": "01033", "name": "Colbert County High School", "zip": "35646", "lat": 34.695533, "country": "Colbert County", "lon": -87.524424, "addr": "2200 High School St"}, {"city": "Tuscumbia", "state": "AL", "fips": "01033", "name": "Colbert Heights High School", "zip": "35674", "lat": 34.669434, "country": "Colbert County", "lon": -87.700833, "addr": "6825 Woodmont Dr"}, {"city": "Leighton", "state": "AL", "fips": "01033", "name": "Hatton Elementary School", "zip": "35646", "lat": 34.757262, "country": "Colbert County", "lon": -87.484439, "addr": "2130 Hatton School Rd"}, {"city": "Leighton", "state": "AL", "fips": "01033", "name": "Leighton Elementary School", "zip": "35646", "lat": 34.697814, "country": "Colbert County", "lon": -87.523443, "addr": "8100 Old Highway 20"}, {"city": "Tuscumbia", "state": "AL", "fips": "01033", "name": "New Bethel Elementary School", "zip": "35674", "lat": 34.643172, "country": "Colbert County", "lon": -87.780461, "addr": "900 New Bethel School Rd"}, {"city": "Tuscumbia", "state": "AL", "fips": "01033", "name": "Colbert Heights Elementary School", "zip": "35674", "lat": 34.667372, "country": "Colbert County", "lon": -87.702521, "addr": "1551 Sunset Dr"}, {"city": "Castleberry", "state": "AL", "fips": "01035", "name": "Conecuh County Junior High School", "zip": "36432", "lat": 31.297203, "country": "Conecuh County", "lon": -87.031305, "addr": "2347 Cleveland Avenue"}, {"city": "Evergreen", "state": "AL", "fips": "01035", "name": "Evergreen Elementary School", "zip": "36401", "lat": 31.426784, "country": "Conecuh County", "lon": -86.972683, "addr": "821 West Front Street"}, {"city": "Evergreen", "state": "AL", "fips": "01035", "name": "Lyeffion Junior High School", "zip": "36401", "lat": 31.541683, "country": "Conecuh County", "lon": -86.987452, "addr": "7575 Highway 83"}, {"city": "Evergreen", "state": "AL", "fips": "01035", "name": "Thurgood Marshall Middle School", "zip": "36401", "lat": 31.423271, "country": "Conecuh County", "lon": -86.951526, "addr": "428 Reynolds Avenue"}, {"city": "Repton", "state": "AL", "fips": "01035", "name": "Repton Junior High School", "zip": "36475", "lat": 31.411493, "country": "Conecuh County", "lon": -87.234523, "addr": "2340 Conaly Street"}, {"city": "Evergreen", "state": "AL", "fips": "01035", "name": "Hillcrest High School", "zip": "36401", "lat": 31.43117, "country": "Conecuh County", "lon": -86.937166, "addr": "1989 Jaguar Rd"}, {"city": "Evergreen", "state": "AL", "fips": "01035", "name": "Genesis School", "zip": "36401", "lat": 31.43601, "country": "Conecuh County", "lon": -86.950779, "addr": "111 Perryman Street"}, {"city": "Evergreen", "state": "AL", "fips": "01035", "name": "Genesis Innovative School", "zip": "36401", "lat": 31.435987, "country": "Conecuh County", "lon": -86.95078, "addr": "111 Perryman Street"}, {"city": "Rockford", "state": "AL", "fips": "01037", "name": "Coosa County Career Tech Center", "zip": "35136", "lat": 33.001543, "country": "Coosa County", "lon": -86.202051, "addr": "17768 US Hwy 231"}, {"city": "Rockford", "state": "AL", "fips": "01037", "name": "Central High School", "zip": "35136", "lat": 33.006452, "country": "Coosa County", "lon": -86.201187, "addr": "95 Coosa County Road 75"}, {"city": "Rockford", "state": "AL", "fips": "01037", "name": "Central Elementary School", "zip": "35136", "lat": 33.006713, "country": "Coosa County", "lon": -86.201632, "addr": "95 Coosa County Rd 75"}, {"city": "Rockford", "state": "AL", "fips": "01037", "name": "Central Middle School", "zip": "35136", "lat": 33.006443, "country": "Coosa County", "lon": -86.201207, "addr": "97 Coosa County Road 75"}, {"city": "Andalusia", "state": "AL", "fips": "01039", "name": "Straughn Elementary School", "zip": "36421", "lat": 31.388508, "country": "Covington County", "lon": -86.416182, "addr": "29324 Straughn School Road"}, {"city": "Opp", "state": "AL", "fips": "01039", "name": "Fleeta School", "zip": "36467", "lat": 31.329662, "country": "Covington County", "lon": -86.244961, "addr": "27463 County Road 30"}, {"city": "Florala", "state": "AL", "fips": "01039", "name": "Florala High School", "zip": "36442", "lat": 31.002794, "country": "Covington County", "lon": -86.336791, "addr": "22114 Begonia St"}, {"city": "Andalusia", "state": "AL", "fips": "01039", "name": "Pleasant Home School", "zip": "36420", "lat": 31.158381, "country": "Covington County", "lon": -86.612816, "addr": "12548 Falco Road"}, {"city": "Red Level", "state": "AL", "fips": "01039", "name": "Red Level High School", "zip": "36474", "lat": 31.403151, "country": "Covington County", "lon": -86.612161, "addr": "28551 Barrow Road"}, {"city": "Andalusia", "state": "AL", "fips": "01039", "name": "Straughn High School", "zip": "36421", "lat": 31.390562, "country": "Covington County", "lon": -86.415684, "addr": "29448 Straughn School Road"}, {"city": "Lockhart", "state": "AL", "fips": "01039", "name": "WS Harlan Elementary School", "zip": "36455", "lat": 31.015529, "country": "Covington County", "lon": -86.356732, "addr": "1641 Mohegan St"}, {"city": "Andalusia", "state": "AL", "fips": "01039", "name": "Straughn Middle School", "zip": "36421", "lat": 31.387785, "country": "Covington County", "lon": -86.416964, "addr": "29324 Straughn School Road"}, {"city": "Red Level", "state": "AL", "fips": "01039", "name": "Red Level Elementary School", "zip": "36474", "lat": 31.40273, "country": "Covington County", "lon": -86.61282, "addr": "28551 Barrow Road"}, {"city": "Brantley", "state": "AL", "fips": "01041", "name": "Brantley High School", "zip": "36009", "lat": 31.590445, "country": "Crenshaw County", "lon": -86.255144, "addr": "8879 N Main St"}, {"city": "Highland Home", "state": "AL", "fips": "01041", "name": "Highland Home School", "zip": "36041", "lat": 31.953015, "country": "Crenshaw County", "lon": -86.313511, "addr": "1434 Montgomery Hwy"}, {"city": "Luverne", "state": "AL", "fips": "01041", "name": "Luverne High School", "zip": "36049", "lat": 31.713206, "country": "Crenshaw County", "lon": -86.275416, "addr": "194 First Ave"}, {"city": "Luverne", "state": "AL", "fips": "01041", "name": "Crenshaw County Area Vocational", "zip": "36049", "lat": 31.705059, "country": "Crenshaw County", "lon": -86.267718, "addr": "183 Votec Dr"}, {"city": "Cullman", "state": "AL", "fips": "01043", "name": "Cullman City Primary School", "zip": "35055", "lat": 34.187563, "country": "Cullman County", "lon": -86.835297, "addr": "900 Hoehn Drive NE"}, {"city": "Cullman", "state": "AL", "fips": "01043", "name": "Cullman Middle School", "zip": "35055", "lat": 34.18504, "country": "Cullman County", "lon": -86.844355, "addr": "800 2nd Ave NE"}, {"city": "Cullman", "state": "AL", "fips": "01043", "name": "Cullman High School", "zip": "35055", "lat": 34.188538, "country": "Cullman County", "lon": -86.841801, "addr": "510 13th St NE"}, {"city": "Cullman", "state": "AL", "fips": "01043", "name": "East Elementary School", "zip": "35055", "lat": 34.173566, "country": "Cullman County", "lon": -86.835883, "addr": "608 4th Ave SE"}, {"city": "Cullman", "state": "AL", "fips": "01043", "name": "West Elementary School", "zip": "35055", "lat": 34.172774, "country": "Cullman County", "lon": -86.857118, "addr": "303 Rosemont Ave SW"}, {"city": "Cullman", "state": "AL", "fips": "01043", "name": "Cullman City Career Tech", "zip": "35055", "lat": 34.179015, "country": "Cullman County", "lon": -86.840793, "addr": "301 First Street NE"}, {"city": "Cullman", "state": "AL", "fips": "01043", "name": "Cullman Community Comprehensive Learning Center", "zip": "35055", "lat": 34.179153, "country": "Cullman County", "lon": -86.840458, "addr": "301 1st Street NE"}, {"city": "Baileyton", "state": "AL", "fips": "01043", "name": "Parkside Elementary School", "zip": "35019", "lat": 34.268095, "country": "Cullman County", "lon": -86.610417, "addr": "12431 Al Highway 69 N"}, {"city": "Bremen", "state": "AL", "fips": "01043", "name": "Cold Springs High School", "zip": "35033", "lat": 33.982384, "country": "Cullman County", "lon": -87.032348, "addr": "9010 County Road 109"}, {"city": "Bremen", "state": "AL", "fips": "01043", "name": "Cold Springs Elementary School", "zip": "35033", "lat": 33.981296, "country": "Cullman County", "lon": -87.032279, "addr": "8999 County Road 109"}, {"city": "Cullman", "state": "AL", "fips": "01043", "name": "Fairview High School", "zip": "35058", "lat": 34.254949, "country": "Cullman County", "lon": -86.68824, "addr": "841 Welcome Rd"}, {"city": "Cullman", "state": "AL", "fips": "01043", "name": "Good Hope High School", "zip": "35057", "lat": 34.103465, "country": "Cullman County", "lon": -86.879733, "addr": "210 Good Hope School Rd"}, {"city": "Hanceville", "state": "AL", "fips": "01043", "name": "Hanceville High School", "zip": "35077", "lat": 34.061201, "country": "Cullman County", "lon": -86.760807, "addr": "801 Commercial St"}, {"city": "Holly Pond", "state": "AL", "fips": "01043", "name": "Holly Pond High School", "zip": "35083", "lat": 34.176893, "country": "Cullman County", "lon": -86.619025, "addr": "160 New Hope Road"}, {"city": "Vinemont", "state": "AL", "fips": "01043", "name": "Vinemont High School", "zip": "35179", "lat": 34.244071, "country": "Cullman County", "lon": -86.864278, "addr": "High School Road"}, {"city": "Cullman", "state": "AL", "fips": "01043", "name": "Welti Elementary School", "zip": "35055", "lat": 34.141836, "country": "Cullman County", "lon": -86.740742, "addr": "8545 County Road 747"}, {"city": "Cullman", "state": "AL", "fips": "01043", "name": "West Point High School", "zip": "35057", "lat": 34.237327, "country": "Cullman County", "lon": -86.963253, "addr": "4314 County Road 1141"}, {"city": "Cullman", "state": "AL", "fips": "01043", "name": "Fairview Elementary School", "zip": "35058", "lat": 34.255889, "country": "Cullman County", "lon": -86.689462, "addr": "700 Wesley Ave N"}, {"city": "Cullman", "state": "AL", "fips": "01043", "name": "Fairview Middle School", "zip": "35058", "lat": 34.254911, "country": "Cullman County", "lon": -86.687969, "addr": "841 Welcome Rd"}, {"city": "Cullman", "state": "AL", "fips": "01043", "name": "Good Hope Elementary School", "zip": "35057", "lat": 34.1029, "country": "Cullman County", "lon": -86.878675, "addr": "204 Good Hope School Rd"}, {"city": "Cullman", "state": "AL", "fips": "01043", "name": "Good Hope Middle School", "zip": "35057", "lat": 34.102738, "country": "Cullman County", "lon": -86.881057, "addr": "216 Good Hope School RD"}, {"city": "Hanceville", "state": "AL", "fips": "01043", "name": "Hanceville Elementary School", "zip": "35077", "lat": 34.059769, "country": "Cullman County", "lon": -86.761938, "addr": "799 Commercial St"}, {"city": "Hanceville", "state": "AL", "fips": "01043", "name": "Hanceville Middle School", "zip": "35077", "lat": 34.06111, "country": "Cullman County", "lon": -86.761375, "addr": "805 Commercial St SE"}, {"city": "Holly Pond", "state": "AL", "fips": "01043", "name": "Holly Pond Elementary School", "zip": "35083", "lat": 34.176252, "country": "Cullman County", "lon": -86.618657, "addr": "120 New Hope Road"},